[
 {
  "Name": "普利擎汽車專業保養中心",
  "directory2": "3.1行車運輸",
  "directory3": "汽車保養維修",
  "directory4": "車勢網",
  "Address": "桃園市龜山區復興一路370-1號",
  "Phone": "03-327-2198",
  "Hours": "週一至週五 08:30 - 20:00, 週六 08:30 - 18:00",
  "Score": 4.9,
  "Figure": "fig\/XLK-469-Car\/XLK-4609-CarRepair-01.jpeg",
  "Link": "https:\/\/www.carce.cc\/garage\/798",
  "Maker1": "Honda, Nissan, Toyota, VW",
  "Maker2": "BMW, Lexus, Mazda, Benz",
  "Map": "https:\/\/www.google.com.tw\/maps\/place\/%E6%99%AE%E5%88%A9%E6%93%8E%E6%B1%BD%E8%BB%8A%E5%B0%88%E6%A5%AD%E4%BF%9D%E9%A4%8A%E4%B8%AD%E5%BF%83\/@25.0548642,121.3569284,17z\/data=!4m12!1m6!3m5!1s0x3442a73660a71fdd:0xac97f13b1ce558bc!2z5pmu5Yip5pOO5rG96LuK5bCI5qWt5L-d6aSK5Lit5b-D!8m2!3d25.0548324!4d121.3611804!3m4!1s0x3442a73660a71fdd:0xac97f13b1ce558bc!8m2!3d25.0548324!4d121.3611804?hl=zh-TW&authuser=0"
 },
 {
  "Name": "丸本輪業",
  "directory2": "3.1行車運輸",
  "directory3": "汽車輪胎",
  "directory4": "車勢網",
  "Address": "桃園市龜山區復興三路21號",
  "Phone": "03-211-5730",
  "Hours": "週一至週六 09:00 - 20:00",
  "Score": 4.4,
  "Figure": "fig\/XLK-469-Car\/XLK-4609-CarRepair-02.jpeg",
  "Link": "https:\/\/www.carce.cc\/garage\/1074",
  "Maker1": "Honda, Mitsubishi, Toyota",
  "Maker2": "Nissan, Subaru",
  "Help": "Y",
  "Map": "https:\/\/www.google.com.tw\/maps\/place\/%E4%B8%B8%E6%9C%AC%E8%BB%8A%E6%A5%AD\/@25.0552454,121.3728417,17z\/data=!3m1!4b1!4m5!3m4!1s0x3442a73e6e53e701:0x49ecf3a23720cc43!8m2!3d25.0552454!4d121.3750304?hl=zh-TW&authuser=0"
 },
 {
  "Name": "G12汽車保養中心",
  "directory2": "3.1行車運輸",
  "directory3": "汽車保養維修",
  "directory4": "車勢網",
  "Address": "新北市林口區文化北路二段234號",
  "Phone": "02-2606-9494",
  "Hours": "週ㄧ至週六 09:30 - 19:00, 午休 12:00 - 13:30",
  "Score": 4.8,
  "Figure": "fig\/XLK-469-Car\/XLK-4609-CarRepair-03.jpeg",
  "Link": "https:\/\/www.carce.cc\/garage\/1685",
  "Maker1": "Mazda, Mitsubishi, Suzuki, Toyota",
  "Maker2": "Ford, Honda, Hyundai, Kia, Land Rover, Lexus, Nissan",
  "Map": "https:\/\/www.google.com.tw\/maps\/place\/G12%E6%B1%BD%E8%BB%8A%E4%BF%9D%E4%BF%AE%E4%B8%AD%E5%BF%83\/@25.0852291,121.3708879,17z\/data=!3m1!4b1!4m5!3m4!1s0x3442a6c3bda38f71:0x7b1c44311e2831f5!8m2!3d25.0852291!4d121.3730766?hl=zh-TW&authuser=0"
 },
 {
  "Name": "宏勝輪胎",
  "directory2": "3.1行車運輸",
  "directory3": "汽車輪胎",
  "directory4": "車勢網",
  "Address": "新北市林口區南勢四街255號",
  "Phone": "02-2609-5738",
  "Hours": "週一至週五 10:00 - 20:00, 週六 10:00 - 17:00",
  "Score": 4.8,
  "Figure": "fig\/XLK-469-Car\/XLK-4609-CarRepair-04.jpeg",
  "Link": "https:\/\/www.carce.cc\/garage\/1654",
  "Maker1": "Audi, BMW, Lexus, Benz, Nissan, Toyota",
  "Maker2": "Honda, Hyundai, Mazda, Volvo",
  "Help": "Y",
  "Map": "https:\/\/www.google.com.tw\/maps\/place\/%E5%AE%8F%E5%8B%9D%E8%BC%AA%E8%83%8E+%E6%9E%97%E5%8F%A3%E6%97%97%E8%89%A6+%E8%BB%8A%E5%8B%A2%E7%B6%B2\/@25.0732593,121.3540335,17z\/data=!3m1!4b1!4m5!3m4!1s0x3442a7b33965f3bb:0x9d8904f6e4e76e9!8m2!3d25.0732593!4d121.3562222?hl=zh-TW&authuser=0"
 },
 {
  "Name": "亞伯安汽車仁愛分店",
  "directory2": "3.1行車運輸",
  "directory3": "汽車保養維修",
  "directory4": "車勢網",
  "Address": "新北市林口區仁愛路一段631-1號",
  "Phone": "02-2603-5128",
  "Hours": "週一至週六 09:00 - 18:00",
  "Score": 4.9,
  "Figure": "fig\/XLK-469-Car\/XLK-4609-CarRepair-05.jpeg",
  "Link": "https:\/\/www.carce.cc\/garage\/1611",
  "Maker1": "Honda, Lexus, Toyota, Volvo",
  "Maker2": "BMW, Mazda, Benz, Nissan",
  "Help": "Y",
  "Map": "https:\/\/www.google.com.tw\/maps\/place\/%E8%BB%8A%E5%8B%A2-%E4%BA%9E%E4%BC%AF%E5%AE%89%E6%B1%BD%E8%BB%8A+%E4%BB%81%E6%84%9B%E5%BA%97\/@25.0764542,121.3566154,14z\/data=!4m9!1m2!2m1!1z5Lqe5Lyv5a6J5rG96LuK5LuB5oSb5YiG5bqX!3m5!1s0x3442a7c364a5e20d:0xb1de6fba6b8dc064!8m2!3d25.0764764!4d121.3895741!15sChvkup7kvK_lronmsb3ou4rku4HmhJvliIblupeSARFhdXRvX21hY2hpbmVfc2hvcOABAA?hl=zh-TW&authuser=0"
 },
 {
  "Name": "鴻毅汽車修護",
  "directory2": "3.1行車運輸",
  "directory3": "汽車保養維修",
  "directory4": "車勢網",
  "Address": "新北市林口區文化北路二段272號",
  "Phone": "0936-870-970",
  "Hours": "週一至週六 08:30 - 18:00",
  "Score": 4.7,
  "Figure": "fig\/XLK-469-Car\/XLK-4609-CarRepair-06.jpeg",
  "Link": "https:\/\/www.carce.cc\/garage\/917",
  "Maker1": "Audi, BMW, Benz, VW, Volvo",
  "Help": "Y",
  "Map": "https:\/\/www.google.com.tw\/maps\/place\/%E9%B4%BB%E6%AF%85%E6%B1%BD%E8%BB%8A%E4%BF%9D%E4%BF%AE%E5%BB%A0\/@25.0861536,121.3714959,17z\/data=!3m1!4b1!4m5!3m4!1s0x3442a6c3d134af47:0xbd2f1627dfd27e14!8m2!3d25.0861536!4d121.3736846?hl=zh-TW&authuser=0"
 },
 {
  "Name": "德旺汽車",
  "directory2": "3.1行車運輸",
  "directory3": "汽車保養維修",
  "Address": "桃園市龜山區文德二路145號",
  "Phone": "0926-492-995",
  "Hours": "週一至週五09:00 - 19:00, 週六 09:00 - 16:00",
  "Score": 4.8,
  "Figure": "fig\/XLK-469-Car\/XLK-4609-CarRepair-07.jpeg",
  "Link": "https:\/\/www.facebook.com\/DeWangMotor\/",
  "Maker1": "Audi, VW, Benz, Porsche ",
  "Map": "https:\/\/www.google.com.tw\/maps\/place\/%E5%BE%B7%E6%97%BA%E6%B1%BD%E8%BB%8A\/@25.0559993,121.3787134,17z\/data=!3m1!4b1!4m5!3m4!1s0x3442a715f1029127:0x8632fd07164892e8!8m2!3d25.0559993!4d121.3809022?hl=zh-TW&authuser=0"
 },
 {
  "Name": "連慶機車行",
  "directory2": "3.1行車運輸",
  "directory3": "機車維修",
  "Address": "桃園市龜山區文山街36號",
  "Phone": "03-328-5425",
  "Hours": "週一至週六 08:00 - 21:30",
  "Score": 4,
  "Figure": "fig\/XLK-469-Car\/XLK-4609-CarRepair-08.jpeg",
  "Maker1": "Yamaha, Kymco, Sym",
  "Help": "Y",
  "Map": "https:\/\/www.google.com.tw\/maps\/place\/%E9%80%A3%E6%85%B6%E6%A9%9F%E8%BB%8A\/@25.0563842,121.3783411,17z\/data=!3m1!4b1!4m5!3m4!1s0x3442a7171d4888e1:0x933c65a5ecc77c41!8m2!3d25.0563489!4d121.3805421?hl=zh-TW&authuser=0"
 },
 {
  "Name": "明祥汽車",
  "directory2": "3.1行車運輸",
  "directory3": "汽車保養維修",
  "Address": "桃園市龜山區文安街11號",
  "Phone": "0978-793-288",
  "Hours": "週一至週六 09:00 - 20:30",
  "Score": 4.8,
  "Figure": "fig\/XLK-469-Car\/XLK-4609-CarRepair-09.jpeg",
  "Link": "https:\/\/m.facebook.com\/profile.php?id=1456181734486785",
  "Map": "https:\/\/www.google.com.tw\/maps\/place\/%E6%98%8E%E7%A5%A5%E6%B1%BD%E8%BB%8A%E4%BF%9D%E9%A4%8A%E5%BB%A0%EF%BC%88%E5%90%84%E8%BB%8A%E7%B3%BB%E4%BF%9D%E9%A4%8A%E7%B6%AD%E4%BF%AE%E3%80%81%E9%88%91%E9%87%91%E7%83%A4%E6%BC%86%E3%80%81%E6%B1%BD%E8%BB%8A%E5%86%B7%E6%B0%A3%E6%B8%85%E6%B4%97%E4%BF%9D%E9%A4%8A%E7%B6%AD%E4%BF%AE%EF%BC%89Mobil\/@25.0564936,121.3779077,17z\/data=!3m1!4b1!4m5!3m4!1s0x3442a7170033208b:0x8514eeb87b75a23f!8m2!3d25.0564936!4d121.3801017?hl=zh-TW&authuser=0"
 },
 {
  "Name": "偉豐汽車",
  "directory2": "3.1行車運輸",
  "directory3": "汽車保養維修",
  "Address": "桃園市龜山區文德路74號",
  "Phone": "03-327-5695",
  "Score": 5,
  "Figure": "fig\/XLK-469-Car\/XLK-4609-CarRepair-10.jpeg",
  "Map": "https:\/\/www.google.com.tw\/maps\/place\/%E5%81%89%E8%B1%90%E6%B1%BD%E8%BB%8A\/@25.0570648,121.3786651,17z\/data=!3m1!4b1!4m5!3m4!1s0x3442a73f16f48aa1:0xe5012ef1d9ab08a3!8m2!3d25.0570526!4d121.3808631?hl=zh-TW&authuser=0"
 },
 {
  "Name": "銓億車業",
  "directory2": "3.1行車運輸",
  "directory3": "機車維修",
  "Address": "桃園市龜山區文德路72號",
  "Phone": "03-397-8890",
  "Hours": "週一至週六 08:00 - 22:00",
  "Figure": "fig\/XLK-469-Car\/XLK-4609-CarRepair-11.jpeg",
  "Maker1": "Sym",
  "Map": "https:\/\/www.google.com.tw\/maps\/place\/%E8%A9%AE%E5%84%84%E8%BB%8A%E6%A5%AD\/@25.0237113,121.3218564,13z\/data=!4m9!1m2!2m1!1z6YqT5YSE6LuK5qWtIOm-nOWxsQ!3m5!1s0x3442a70f9f6a85e5:0x6aa7f197ac279c27!8m2!3d25.0569674!4d121.3807072!15sChPpipPlhITou4rmpa0g6b6c5bGxkgEWbW90b3JjeWNsZV9yZXBhaXJfc2hvcOABAA?hl=zh-TW&authuser=0"
 },
 {
  "Name": "揚益機車",
  "directory2": "3.1行車運輸",
  "directory3": "機車維修",
  "Address": "桃園市龜山區文德路26號",
  "Phone": "03-397-5962",
  "Figure": "fig\/XLK-469-Car\/XLK-4609-CarRepair-12.jpeg",
  "Maker1": "Yamaha",
  "Map": "https:\/\/www.google.com.tw\/maps\/place\/%E6%8F%9A%E7%9B%8A%E6%A9%9F%E8%BB%8A%E8%A1%8C\/@24.6202299,120.5636973,9z\/data=!4m9!1m2!2m1!1z5o-a55uK!3m5!1s0x3442a7eeb3cbdd11:0x7a2357803199f122!8m2!3d25.0565379!4d121.3790909!15sCgbmj5rnm4qSARZtb3RvcmN5Y2xlX3JlcGFpcl9zaG9w4AEA?hl=zh-TW&authuser=0"
 },
 {
  "Name": "好開汽車",
  "directory2": "3.1行車運輸",
  "directory3": "汽車保養維修",
  "Address": "桃園市龜山區復興三路23號",
  "Phone": "0937-191-524",
  "Hours": "週一至週五08:30 - 19:00, 週六 09:00 - 17:30",
  "Score": 4.9,
  "Figure": "fig\/XLK-469-Car\/XLK-4609-CarRepair-13.jpeg",
  "Link": "https:\/\/auto-restoration-service-154.business.site\/",
  "Map": "https:\/\/www.google.com.tw\/maps\/place\/%E5%A5%BD%E9%96%8B%E6%B1%BD%E8%BB%8A\/@25.0541121,121.3582352,15z\/data=!3m1!4b1!4m5!3m4!1s0x3442a73e6f05017b:0x41b38d56d7c8b0fd!8m2!3d25.0541224!4d121.3751133?hl=zh-TW&authuser=0"
 },
 {
  "Name": "鎰鴻汽車",
  "directory2": "3.1行車運輸",
  "directory3": "汽車保養維修",
  "Address": "桃園市龜山區復興三路19號",
  "Phone": "03-397-1343",
  "Hours": "週一至週五08:30 - 19:30, 週六 08:30 - 18:30",
  "Score": 4.9,
  "Figure": "fig\/XLK-469-Car\/XLK-4609-CarRepair-14.jpeg",
  "Map": "https:\/\/www.google.com.tw\/maps\/place\/%E9%8E%B0%E9%B4%BB%E6%B1%BD%E8%BB%8A%E4%BF%AE%E7%90%86%E5%BB%A0\/@25.0541266,121.3729316,17z\/data=!3m1!4b1!4m5!3m4!1s0x3442a73e6e3f6287:0x52fef2f8cf3cfa59!8m2!3d25.0541298!4d121.3751223?hl=zh-TW&authuser=0"
 },
 {
  "Name": "銘進汽車",
  "directory2": "3.1行車運輸",
  "directory3": "汽車保養維修",
  "directory4": "HOT 保修大聯盟",
  "Address": "桃園市龜山區復興三路13號",
  "Phone": "0936-655-556",
  "Hours": "週一至週五09:00 - 20:00, 週六 09:00 - 18:00",
  "Score": 4.9,
  "Figure": "fig\/XLK-469-Car\/XLK-4609-CarRepair-15.jpeg",
  "Map": "https:\/\/www.google.com.tw\/maps\/place\/%E9%8A%98%E9%80%B2%E6%B1%BD%E8%BB%8A%E4%BF%AE%E7%90%86%E5%BB%A0(%E7%B2%BE%E4%BF%AE%E6%97%A5%E7%B3%BB%E8%BB%8A+%E4%BF%9D%E9%A4%8A%E7%B6%AD%E4%BF%AE+%E9%9B%BB%E7%93%B6%E6%B8%AC%E9%87%8F+%E5%86%B7%E6%B0%A3%E9%9B%BB%E6%A9%9F+%E5%BA%95%E7%9B%A4%E7%85%9E%E8%BB%8A+%E9%9B%BB%E8%85%A6%E8%A8%BA%E6%96%B7+%E6%9D%BF%E9%87%91%E5%87%BA%E9%9A%AA)%E4%BB%A5%E5%96%84%E7%82%BA%E6%9C%AC%E6%AD%A1%E8%BF%8E%E6%8C%87%E6%95%99\/@25.0542446,121.3731127,17z\/data=!3m1!4b1!4m5!3m4!1s0x3442a73e723dbbcb:0x518a69f9150b90d0!8m2!3d25.0542479!4d121.3753034?hl=zh-TW&authuser=0"
 },
 {
  "Name": "易昌車業",
  "directory2": "3.1行車運輸",
  "directory3": "機車維修",
  "Address": "桃園市龜山區復興三路7號",
  "Phone": "03-327-2833",
  "Score": 4,
  "Figure": "fig\/XLK-469-Car\/XLK-4609-CarRepair-16.jpeg",
  "Maker1": "Yamaha",
  "Map": "https:\/\/www.google.com.tw\/maps\/place\/%E6%98%93%E6%98%8C%E8%BB%8A%E6%A5%AD\/@25.0543615,121.3733023,16.99z\/data=!4m5!3m4!1s0x3442a73e73727691:0x31de8936f3255dcc!8m2!3d25.0543938!4d121.3754549?hl=zh-TW&authuser=0"
 },
 {
  "Name": "原總汽車",
  "directory2": "3.1行車運輸",
  "directory3": "汽車保養維修",
  "Address": "桃園市龜山區復興三路32號",
  "Phone": "03-396-0666",
  "Hours": "週一至週五08:00 - 18:00, 週六 08:00 - 12:00",
  "Score": 4.3,
  "Figure": "fig\/XLK-469-Car\/XLK-4609-CarRepair-17.jpeg",
  "Link": "https:\/\/www.facebook.com\/%E5%8E%9F%E7%B8%BD%E6%B1%BD%E8%BB%8A-139707373381148",
  "Map": "https:\/\/www.google.com.tw\/maps\/place\/%E5%8E%9F%E7%B8%BD%E6%B1%BD%E8%BB%8A%E6%9C%89%E9%99%90%E5%85%AC%E5%8F%B8\/@25.0535498,121.3728929,17z\/data=!3m1!4b1!4m5!3m4!1s0x3442a73e42902979:0xc7180e590e519dab!8m2!3d25.0535613!4d121.3750744?hl=zh-TW&authuser=0"
 },
 {
  "Name": "立欣汽車",
  "directory2": "3.1行車運輸",
  "directory3": "汽車保養維修",
  "Address": "桃園市龜山區復興三路68號",
  "Phone": "03-397-1710",
  "Hours": "週一至週五08:00 - 18:00, 週六 08:00 - 12:00",
  "Score": 4.9,
  "Figure": "fig\/XLK-469-Car\/XLK-4609-CarRepair-18.jpeg",
  "Link": "https:\/\/page.line.me\/141nygpv?openQrModal=true",
  "Map": "https:\/\/www.google.com.tw\/maps\/place\/%E7%AB%8B%E6%AC%A3%E6%B1%BD%E8%BB%8A%E4%BF%9D%E9%A4%8A%E4%BB%A3%E6%AA%A2%E5%BB%A0\/@25.0524976,121.3716588,17z\/data=!3m1!4b1!4m5!3m4!1s0x3442a7b52377bfff:0x19778892e3e95502!8m2!3d25.0524976!4d121.3738528?hl=zh-TW&authuser=0"
 },
 {
  "Name": "東菱汽車",
  "directory2": "3.1行車運輸",
  "directory3": "汽車保養維修",
  "Address": "桃園市龜山區文化二路127號",
  "Phone": "03-397-9667",
  "Hours": "週一至週五09:00 - 19:00, 週六 09:00 - 17:30",
  "Score": 4.2,
  "Figure": "fig\/XLK-469-Car\/XLK-4609-CarRepair-19.jpeg",
  "Map": "https:\/\/www.google.com.tw\/maps\/place\/%E6%9D%B1%E8%8F%B1%E6%B1%BD%E8%BB%8A%E4%BF%9D%E9%A4%8A%E5%BB%A0\/@25.054026,121.3679398,17z\/data=!3m1!4b1!4m5!3m4!1s0x3442a739233675d3:0x7084ecfd7e746610!8m2!3d25.054026!4d121.3701338?hl=zh-TW&authuser=0"
 },
 {
  "Name": "東豐車業",
  "directory2": "3.1行車運輸",
  "directory3": "機車維修",
  "Address": "桃園市龜山區文化二路145號",
  "Phone": "03-397-0356",
  "Hours": "週一至週六 08:00 - 21:30",
  "Score": 4.6,
  "Figure": "fig\/XLK-469-Car\/XLK-4609-CarRepair-20.jpeg",
  "Link": "https:\/\/www.kymco.com.tw\/",
  "Maker1": "Kymco",
  "Map": "https:\/\/www.google.com.tw\/maps\/place\/%E5%85%89%E9%99%BD%E6%A9%9F%E8%BB%8AKYMCO%E5%8E%9F%E5%BB%A0%E6%8E%88%E6%AC%8A%E5%BA%97+%E6%9D%B1%E8%B1%90%E6%A9%9F%E8%BB%8A%E8%A1%8C\/@24.6102349,120.5703633,9z\/data=!4m9!1m2!2m1!1z5p2x6LGQ6LuK5qWt!3m5!1s0x3442a73bb6ee5253:0x9fd6367cdc80958a!8m2!3d25.0535647!4d121.3708328!15sCgzmnbHosZDou4rmpa1aESIP5p2xIOixkCDou4og5qWtkgERbW90b3JjeWNsZV9kZWFsZXLgAQA?hl=zh-TW&authuser=0"
 },
 {
  "Name": "順益汽車",
  "directory2": "3.1行車運輸",
  "directory3": "汽車保養維修",
  "Address": "桃園市龜山區復興一路243-3號",
  "Phone": "03-397-9515",
  "Hours": "週一至週六 08:30 - 12:00, 13:00 - 17:45",
  "Score": 4.4,
  "Figure": "fig\/XLK-469-Car\/XLK-4609-CarRepair-21.jpeg",
  "Link": "http:\/\/www.sym-motor.com.tw\/",
  "Maker1": "Mitsubishi",
  "Map": "https:\/\/www.google.com.tw\/maps\/place\/%E9%A0%86%E7%9B%8A%E6%B1%BD%E8%BB%8A%E6%9E%97%E5%8F%A3%E6%9C%8D%E5%8B%99%E5%BB%A0\/@25.0567892,121.3611052,17z\/data=!3m1!4b1!4m5!3m4!1s0x3442a7373ab726e3:0xf83b6152f4712a49!8m2!3d25.0568028!4d121.3632885?hl=zh-TW&authuser=0"
 },
 {
  "Name": "強藝汽車",
  "directory2": "3.1行車運輸",
  "directory3": "汽車保養維修",
  "directory4": "HOT 保修大聯盟",
  "Address": "桃園市龜山區復興一路241-1號",
  "Phone": "03-327-3885",
  "Hours": "週一至週六 08:30 - 17:30",
  "Score": 3,
  "Figure": "fig\/XLK-469-Car\/XLK-4609-CarRepair-22.jpeg",
  "Link": "https:\/\/www.hotcar.com.tw\/CWA\/CWA170.html?SEQNO=1P",
  "Map": "https:\/\/www.google.com.tw\/maps\/place\/HOT%E4%BF%9D%E4%BF%AE%E5%A4%A7%E8%81%AF%E7%9B%9F+%E5%BC%B7%E8%97%9D%E6%B1%BD%E8%BB%8A\/@25.0571252,121.3615106,17z\/data=!3m1!4b1!4m5!3m4!1s0x3442a72d06c87ddf:0x8fe080af010f21a!8m2!3d25.0570877!4d121.3637324?hl=zh-TW&authuser=0"
 },
 {
  "Name": "Toyota 大崗營業所",
  "directory2": "3.1行車運輸",
  "directory3": "汽車保養維修",
  "Address": "桃園市龜山區文化三路358號",
  "Phone": "03-396-1355",
  "Hours": "週一至週六 08:30 - 17:30",
  "Score": 4.8,
  "Figure": "fig\/XLK-469-Car\/XLK-4609-CarRepair-23.jpeg",
  "Link": "https:\/\/toyota-c22-automachineshop.business.site\/?utm_source=gmb&utm_medium=referral",
  "Map": "https:\/\/www.google.com.tw\/maps\/place\/TOYOTA+%E5%A4%A7%E5%B4%97%E6%9C%8D%E5%8B%99%E5%BB%A0\/@25.0549725,121.3637022,17z\/data=!3m1!4b1!4m5!3m4!1s0x3442a738894d1791:0x79daa86ea5d482af!8m2!3d25.0549725!4d121.3658887?hl=zh-TW&authuser=0"
 },
 {
  "Name": "鐵達士汽車",
  "directory2": "3.1行車運輸",
  "directory3": "汽車保養維修",
  "Address": "桃園市龜山區文化三路377號",
  "Phone": "03-328-0090",
  "Hours": "週一至週五09:00 - 19:00, 週六 09:00 - 17:00",
  "Score": 2.4,
  "Figure": "fig\/XLK-469-Car\/XLK-4609-CarRepair-24.jpeg",
  "Map": "https:\/\/www.google.com.tw\/maps\/place\/%E9%90%B5%E9%81%94%E5%A3%AB\/@25.0552155,121.3641416,17z\/data=!3m2!4b1!5s0x3442a739db3381d9:0xfa61981d8e87629b!4m5!3m4!1s0x3442a739db4d1ec7:0x5cd19c345a1e767b!8m2!3d25.0552155!4d121.3663356?hl=zh-TW&authuser=0"
 },
 {
  "Name": "五七輪胎",
  "directory2": "3.1行車運輸",
  "directory3": "汽車輪胎",
  "Address": "桃園市龜山區文化三路414號",
  "Phone": "03-328-1788",
  "Score": 3.7,
  "Figure": "fig\/XLK-469-Car\/XLK-4609-CarRepair-25.jpeg",
  "Maker1": "Bridgestone",
  "Map": "https:\/\/www.google.com.tw\/maps\/place\/%E4%BA%94%E4%B8%83%E8%BC%AA%E8%83%8E%E8%A1%8C\/@25.0536679,121.3649504,17z\/data=!3m1!4b1!4m5!3m4!1s0x3442a7384a671e01:0x1d6f7ddc1405a670!8m2!3d25.0536679!4d121.3671444?hl=zh-TW&authuser=0"
 },
 {
  "Name": "進裕汽車",
  "directory2": "3.1行車運輸",
  "directory3": "汽車保養維修",
  "Address": "桃園市龜山區文化三路626號",
  "Phone": "03-328-0431",
  "Hours": "週一至週六09:00 - 21:00",
  "Score": 4.8,
  "Figure": "fig\/XLK-469-Car\/XLK-4609-CarRepair-26.jpeg",
  "Map": "https:\/\/www.google.com.tw\/maps\/place\/%E9%80%B2%E8%A3%95%E8%BC%AA%E8%83%8E%E8%A1%8C\/@25.0506134,121.3679615,17z\/data=!3m1!4b1!4m5!3m4!1s0x3442a738a103eaff:0xe79846398d5084ed!8m2!3d25.0506134!4d121.3701555?hl=zh-TW&authuser=0"
 },
 {
  "Name": "百樂達輪胎",
  "directory2": "3.1行車運輸",
  "directory3": "汽車輪胎",
  "Address": "桃園市龜山區忠義路二段607號",
  "Phone": "03-327-1011",
  "Hours": "週一至週五08:00 - 20:00, 週六 08:00 - 18:00",
  "Score": 4.7,
  "Figure": "fig\/XLK-469-Car\/XLK-4609-CarRepair-27.png",
  "Link": "https:\/\/line.me\/R\/ti\/p\/@xie5389h",
  "Maker1": "Continental",
  "Map": "https:\/\/www.google.com.tw\/maps\/place\/%E7%99%BE%E6%A8%82%E9%81%94%E8%BC%AA%E8%83%8E%E6%9C%89%E9%99%90%E5%85%AC%E5%8F%B8-%E5%BE%B7%E5%9C%8B%E9%A6%AC%E7%89%8C%E8%BC%AA%E8%83%8E%E6%97%97%E8%89%A6%E5%BA%97BestDrive+-+%E8%BC%AA%E8%83%8E%E6%9B%B4%E6%8F%9B%E3%80%81%E5%9B%9B%E8%BC%AA%E5%AE%9A%E4%BD%8D%E3%80%81%E5%BC%95%E6%93%8E%E4%BF%9D%E9%A4%8A%E3%80%81%E5%BA%95%E7%9B%A4%E7%B6%AD%E4%BF%AE\/@25.0546983,121.3526763,16.42z\/data=!4m13!1m7!3m6!1s0x3442a73262df7ddd:0x1e4f43f1f5e7f2f8!2zMzMz5qGD5ZyS5biC6b6c5bGx5Y2A5b6p6IiI6KGXMzA05be3MTA16Jmf!3b1!8m2!3d25.0636373!4d121.3571844!3m4!1s0x3442a74c13760621:0x291d35e23719c721!8m2!3d25.055869!4d121.3572837?hl=zh-TW&authuser=0"
 },
 {
  "Name": "誼聯汽車",
  "directory2": "3.1行車運輸",
  "directory3": "汽車保養維修",
  "directory4": "SUM 汽車保修聯盟",
  "Address": "桃園市龜山區華亞三路625號",
  "Hours": "週一至週五09:00 - 18:00",
  "Score": 4.9,
  "Figure": "fig\/XLK-469-Car\/XLK-4609-CarRepair-28.png",
  "Link": "http:\/\/www.yiliancar.com.tw\/",
  "Maker1": "Continental",
  "Map": "https:\/\/www.google.com.tw\/maps\/place\/%E8%AA%BC%E8%81%AF%E6%B1%BD%E8%BB%8A%E4%BF%9D%E4%BF%AE%E4%B8%AD%E5%BF%83%E3%80%90%E7%B6%AD%E4%BF%AE%E9%A0%90%E7%B4%84%E5%88%B6%E3%80%91\/@25.0357671,121.375864,16.18z\/data=!4m5!3m4!1s0x3442a767a590dd01:0x8f8bf6348e06b1d9!8m2!3d25.0358529!4d121.3791266?hl=zh-TW&authuser=0"
 },
 {
  "Name": "捷揚車業",
  "directory2": "3.1行車運輸",
  "directory3": "機車維修",
  "Address": "桃園市龜山區文學路226號",
  "Phone": "03-396-0757",
  "Hours": "週一至週五09:30 - 21:00, 週六 10:00 - 17:00",
  "Score": 4.6,
  "Figure": "fig\/XLK-469-Car\/XLK-4609-CarRepair-29.jpeg",
  "Link": "https:\/\/www.facebook.com\/profile.php?id=100057428260626",
  "Maker1": "Sym",
  "Map": "https:\/\/www.google.com.tw\/maps\/place\/SYM%E4%B8%89%E9%99%BD%E6%A9%9F%E8%BB%8A(%E6%8D%B7%E6%8F%9A%E8%BB%8A%E6%A5%AD)\/@25.0412616,121.3887294,20.96z\/data=!4m5!3m4!1s0x3442a738d0f01b97:0x25451130c0a0f873!8m2!3d25.0413649!4d121.3887381?hl=zh-TW&authuser=0"
 }
]