[
 {
  "no": 51,
  "title": "安小妹包子饅頭專賣店",
  "address": "新北市林口區中山路56號",
  "telphone": "0901-355-101",
  "hours": "06;30 - 18:30",
  "figure": "fig\/XLK-411-Shopping\/AiCity-913-安小妹.jpeg",
  "link": "https:\/\/www.facebook.com\/profile.php?id=100082886814866",
  "category": "手工水餃"
 },
 {
  "no": 50,
  "title": "季節水餃",
  "address": "桃園市龜山區自強東路115號",
  "telphone": "03-349-1673",
  "hours": "11:00 - 14:00, 17:00 - 20:00 週日一公休",
  "figure": "fig\/XLK-411-Shopping\/AiCity-913-季節水餃.jpeg",
  "link": "https:\/\/www.facebook.com\/%E5%AD%A3%E7%AF%80%E6%B0%B4%E9%A4%83-187295364644402\/",
  "category": "手工水餃"
 },
 {
  "no": 48,
  "title": "小鮮肉水餃",
  "address": "新北市林口區林口路15號 林口公有市場",
  "telphone": "0963-317-792",
  "hours": "14:00 - 18:00",
  "figure": "fig\/XLK-411-Shopping\/AiCity-913-小鮮肉.jpeg",
  "link": "https:\/\/www.facebook.com\/groups\/196788967640878",
  "category": "手工水餃"
 },
 {
  "no": 47,
  "title": "酷媽包子、饅頭、水餃",
  "address": "新北市林口區文化二路一段277號(林口黃昏市場內、璨坤旁）",
  "telphone": "0912-000-498",
  "hours": "14:00 - 19:00",
  "figure": "fig\/XLK-411-Shopping\/AiCity-913-酷媽.jpeg",
  "link": "https:\/\/www.facebook.com\/profile.php?id=100064026882164&ref=ts&fref=ts",
  "category": "手工水餃"
 },
 {
  "no": 46,
  "title": "郁見餃子",
  "address": "新北市林口區公園路199號",
  "telphone": "02-2608-8725",
  "hours": "08:00 - 19:00 週日公休",
  "figure": "fig\/XLK-411-Shopping\/AiCity-913-郁見餃子.png",
  "link": "https:\/\/www.facebook.com\/hoyuen168",
  "category": "手工水餃"
 },
 {
  "no": 45,
  "title": "北方麵飯館",
  "address": "桃園市龜山區文化三路540號",
  "telphone": "03-327-0669",
  "hours": "週一 ~五:09:00 - 14:00, 15:30 - 20:00, 週日: 09:00 - 14:00, 16:00 - 20:30, 週六公休",
  "figure": "fig\/XLK-411-Shopping\/AiCity-913-北方餃子.png",
  "link": "https:\/\/www.north-tasty.com.tw\/delivery.jsp",
  "category": "手工水餃"
 },
 {
  "no": 46,
  "title": "小森食舖",
  "address": "桃園市龜山區樂學路97號1樓",
  "telphone": "03-328-6897",
  "hours": "11:30 - 21:00 週一公休",
  "figure": "fig\/XLK-411-Shopping\/AiCity-913-小森.png",
  "link": "https:\/\/www.facebook.com\/photo\/?fbid=132546489530213&set=pcb.132546936196835",
  "category": "手工水餃"
 }
]