[
 {
  "no": 102,
  "title": "好食機蔬果屋",
  "address": "桃園市龜山區華亞三路39巷36號",
  "telphone": "03-328-7179",
  "hours": "09:00 - 21:00",
  "figure": "fig\/XLK-411-Shopping\/AiCity-913-好食機.jpeg",
  "link": "https:\/\/www.facebook.com\/profile.php?id=100088170944366&mibextid=LQQJ4d",
  "category": "生鮮超市",
  "directory1": "1.生活消費",
  "directory2": "1.1食品餐飲",
  "directory3": "生鮮超市"
 },
 {
  "no": 101,
  "title": "福瑞煦生鮮蔬食坊",
  "address": "桃園市龜山區樂學路街486號",
  "telphone": "03-397-3658",
  "hours": "09:00 - 21:00",
  "figure": "fig\/XLK-411-Shopping\/AiCity-913-福瑞煦.jpeg",
  "category": "生鮮超市",
  "directory1": "1.生活消費",
  "directory2": "1.1食品餐飲",
  "directory3": "生鮮超市"
 },
 {
  "no": 45,
  "title": "一牛車水果行",
  "address": "桃園市龜山區文化二路175號",
  "telphone": "03-397-0119",
  "hours": "08:00 - 23:00",
  "figure": "fig\/XLK-411-Shopping\/AiCity-913-一牛車.jpg",
  "category": "水果市場",
  "directory1": "1.生活消費",
  "directory2": "1.1食品餐飲",
  "directory3": "市場蔬果"
 },
 {
  "no": 17,
  "title": "文德路黃昏市場",
  "address": "桃園市龜山區文德路66-50號",
  "figure": "fig\/XLK-411-Shopping\/AiCity-913-文德市場.jpg",
  "link": "#",
  "category": "水果市場",
  "directory1": "1.生活消費",
  "directory2": "1.1食品餐飲",
  "directory3": "市場蔬果"
 },
 {
  "no": 44,
  "title": "四季田鮮果批發量販廣場",
  "address": "桃園市龜山區文化三路500號",
  "telphone": "03-318-3068",
  "hours": "07:00 - 22:00",
  "figure": "fig\/XLK-411-Shopping\/AiCity-913-四季田-2.png",
  "link": "https:\/\/www.facebook.com\/fsf3500",
  "category": "水果市場",
  "directory1": "1.生活消費",
  "directory2": "1.1食品餐飲",
  "directory3": "市場蔬果"
 },
 {
  "no": 80,
  "title": "林口公有零售市場",
  "address": "新北市林口區林口路15號",
  "telphone": "02-2900-4000",
  "hours": "08:00–14:00, 週一公休",
  "figure": "fig\/XLK-411-Shopping\/AiCity-913-林口公有零售市場.jpg",
  "link": "https:\/\/tour.ntpc.gov.tw\/zh-tw\/Attraction\/Detail?wnd_id=60&id=402259",
  "category": "水果市場",
  "directory1": "1.生活消費",
  "directory2": "1.1食品餐飲",
  "directory3": "市場蔬果"
 },
 {
  "no": 20,
  "title": "林口區東勢公有市場",
  "address": "新北市林口區麗園一街35號",
  "hours": "06:00 - 14:00",
  "figure": "fig\/XLK-411-Shopping\/AiCity-913-林口東勢市場.jpg",
  "link": "https:\/\/www.facebook.com\/newtaipeilinkoudongshimarket\/",
  "category": "水果市場",
  "directory1": "1.生活消費",
  "directory2": "1.1食品餐飲",
  "directory3": "市場蔬果"
 },
 {
  "no": 19,
  "title": "林口黃昏市場",
  "address": "新北市林口區文化二路一段277號",
  "hours": "14:00 - 21:00",
  "figure": "fig\/XLK-411-Shopping\/AiCity-913-林口黃昏市場.jpg",
  "link": "#",
  "category": "水果市場",
  "directory1": "1.生活消費",
  "directory2": "1.1食品餐飲",
  "directory3": "市場蔬果"
 },
 {
  "no": 83,
  "title": "南山蔬果生鮮批發",
  "address": "桃園市龜山區忠義路二段524號",
  "telphone": "03-397-2498",
  "hours": "08:00 -19:45, 週一公休",
  "figure": "fig\/XLK-411-Shopping\/AiCity-913-南山果菜.png",
  "link": "https:\/\/www.facebook.com\/%E5%8D%97%E5%B1%B1%E8%94%AC%E8%8F%93%E7%94%9F%E9%AE%AE%E6%89%B9%E7%99%BC%E8%A1%8C-807724092714854",
  "category": "水果市場",
  "directory1": "1.生活消費",
  "directory2": "1.1食品餐飲",
  "directory3": "市場蔬果"
 },
 {
  "no": 81,
  "title": "葉綠素生鮮農產",
  "address": "桃園市桃園市龜山區忠義路二段520號",
  "telphone": "03-397-5890",
  "hours": "09;00 - 21:00",
  "figure": "fig\/XLK-411-Shopping\/AiCity-913-葉綠素.jpg",
  "link": "https:\/\/www.facebook.com\/LinkouChlorophyll\/",
  "category": "生鮮食品",
  "directory1": "1.生活消費",
  "directory2": "1.1食品餐飲",
  "directory3": "市場蔬果"
 },
 {
  "no": 18,
  "title": "龜山黃昏市場",
  "address": "桃園市龜山區忠義路二段522號",
  "hours": "13:00 - 19:00",
  "figure": "fig\/XLK-411-Shopping\/AiCity-913-龜山黃昏市場.jpg",
  "link": "#",
  "category": "水果市場",
  "directory1": "1.生活消費",
  "directory2": "1.1食品餐飲",
  "directory3": "市場蔬果"
 },
 {
  "no": 48,
  "title": "小鮮肉水餃",
  "address": "新北市林口區林口路15號 林口公有市場",
  "telphone": "0963-317-792",
  "hours": "14:00 - 18:00",
  "figure": "fig\/XLK-411-Shopping\/AiCity-913-小鮮肉.jpeg",
  "link": "https:\/\/www.facebook.com\/groups\/196788967640878",
  "category": "生鮮食品",
  "directory1": "1.生活消費",
  "directory2": "1.1食品餐飲",
  "directory3": "生鮮食品"
 },
 {
  "no": 50,
  "title": "季節水餃",
  "address": "桃園市龜山區自強東路115號",
  "telphone": "03-349-1673",
  "hours": "11:00 - 14:00, 17:00 - 20:00 週日一公休",
  "figure": "fig\/XLK-411-Shopping\/AiCity-913-季節水餃.jpeg",
  "link": "https:\/\/www.facebook.com\/%E5%AD%A3%E7%AF%80%E6%B0%B4%E9%A4%83-187295364644402\/",
  "category": "生鮮食品",
  "directory1": "1.生活消費",
  "directory2": "1.1食品餐飲",
  "directory3": "生鮮食品"
 },
 {
  "no": 46,
  "title": "郁見餃子",
  "address": "新北市林口區公園路199號",
  "telphone": "02-2608-8725",
  "hours": "08:00 - 19:00 週日公休",
  "figure": "fig\/XLK-411-Shopping\/AiCity-913-郁見餃子.png",
  "link": "https:\/\/www.facebook.com\/hoyuen168",
  "category": "生鮮食品",
  "directory1": "1.生活消費",
  "directory2": "1.1食品餐飲",
  "directory3": "生鮮食品"
 },
 {
  "no": 47,
  "title": "酷媽包子、饅頭、水餃",
  "address": "新北市林口區文化二路一段277號(林口黃昏市場內、璨坤旁）",
  "telphone": "0912-000-498",
  "hours": "14:00 - 19:00",
  "figure": "fig\/XLK-411-Shopping\/AiCity-913-酷媽.jpeg",
  "link": "https:\/\/www.facebook.com\/profile.php?id=100064026882164&ref=ts&fref=ts",
  "category": "生鮮食品",
  "directory1": "1.生活消費",
  "directory2": "1.1食品餐飲",
  "directory3": "生鮮食品"
 },
 {
  "no": 82,
  "title": "JASONS Market Place",
  "address": "新北市林口區文化三路一段356號GF",
  "telphone": "02-2600-9648",
  "hours": "周一到周四 11:00~21:30\n周五11:00~22:00\n週六到週日 10:30~22:00",
  "figure": "fig\/XLK-411-Shopping\/AiCity-913-Jasons.jpg",
  "link": "http:\/\/www.jasons.com.tw\/CHT\/#sale_active",
  "category": "生鮮超市",
  "directory1": "1.生活消費",
  "directory2": "1.1食品餐飲",
  "directory3": "生鮮超市"
 },
 {
  "no": 10,
  "title": "全聯福利中心 Pxmart - 文德店",
  "address": "桃園市龜山區文德二路123號",
  "telphone": "03-328-1586",
  "hours": "08:00 - 22:00",
  "figure": "fig\/XLK-411-Shopping\/AiCity-913-Pxmart-2.jpeg",
  "link": "http:\/\/www.pxmart.com.tw\/px\/index.px",
  "category": "生鮮超市",
  "directory1": "1.生活消費",
  "directory2": "1.1食品餐飲",
  "directory3": "生鮮超市"
 },
 {
  "no": 6,
  "title": "全聯福利中心 Pxmart - 林口復興店",
  "address": "桃園市龜山區復興一路8號B1",
  "telphone": "03-211-4286",
  "hours": "11:00 - 21:30",
  "figure": "fig\/XLK-411-Shopping\/AiCity-913-Pxmart-2.jpeg",
  "link": "http:\/\/www.pxmart.com.tw\/px\/index.px",
  "category": "生鮮超市",
  "directory1": "1.生活消費",
  "directory2": "1.1食品餐飲",
  "directory3": "生鮮超市"
 },
 {
  "no": 84,
  "title": "全聯福利中心 Pxmart - 長慶店",
  "address": "桃園市龜山區長慶三街81號",
  "telphone": "03-328-1982",
  "hours": "08:00 - 22:00",
  "figure": "fig\/XLK-411-Shopping\/AiCity-913-Pxmart-2.jpeg",
  "link": "http:\/\/www.pxmart.com.tw\/px\/index.px",
  "category": "生鮮超市",
  "directory1": "1.生活消費",
  "directory2": "1.1食品餐飲",
  "directory3": "生鮮超市"
 },
 {
  "no": 7,
  "title": "全聯福利中心 Pxmart - 龜山公園店",
  "address": "桃園市龜山區文化二路82號",
  "telphone": "03-211-4226",
  "hours": "08:00 - 22:00",
  "figure": "fig\/XLK-411-Shopping\/AiCity-913-Pxmart-2.jpeg",
  "link": "http:\/\/www.pxmart.com.tw\/px\/index.px",
  "category": "生鮮超市",
  "directory1": "1.生活消費",
  "directory2": "1.1食品餐飲",
  "directory3": "生鮮超市"
 },
 {
  "no": 8,
  "title": "全聯福利中心 Pxmart - 龜山文化店",
  "address": "桃園市龜山區復興二路3號",
  "telphone": "03-328-2656",
  "hours": "08:30 - 22:30",
  "figure": "fig\/XLK-411-Shopping\/AiCity-913-Pxmart-2.jpeg",
  "link": "http:\/\/www.pxmart.com.tw\/px\/index.px",
  "category": "生鮮超市",
  "directory1": "1.生活消費",
  "directory2": "1.1食品餐飲",
  "directory3": "生鮮超市"
 },
 {
  "no": 9,
  "title": "全聯福利中心 Pxmart - 龜山興華店",
  "address": "桃園市龜山區文化三路316號",
  "telphone": "03-318-7015",
  "hours": "08:00 - 22-00",
  "figure": "fig\/XLK-411-Shopping\/AiCity-913-Pxmart-2.jpeg",
  "link": "http:\/\/www.pxmart.com.tw\/px\/index.px",
  "category": "生鮮超市",
  "directory1": "1.生活消費",
  "directory2": "1.1食品餐飲",
  "directory3": "生鮮超市"
 },
 {
  "no": 11,
  "title": "家樂福 Carrefour - 復興店",
  "address": "桃園市龜山區復興一路222號",
  "telphone": "03-328-8385",
  "hours": "24小時",
  "figure": "fig\/XLK-411-Shopping\/AiCity-913-Carrefour3.jpeg",
  "link": "https:\/\/www.carrefour.com.tw\/",
  "category": "生鮮超市",
  "directory1": "1.生活消費",
  "directory2": "1.1食品餐飲",
  "directory3": "生鮮超市"
 },
 {
  "no": 161,
  "title": "修改衣服 涼椅租售",
  "address": "桃園市龜山區復興一路88號3樓",
  "telphone": "03-328-3041",
  "hours": "09:00 - 21:00, 週六日公休",
  "figure": "fig\/XLK-411-Shopping\/AiCity-913-改衣.jpeg",
  "link": "https:\/\/www.google.com\/maps?q=333%E6%A1%83%E5%9C%92%E5%B8%82%E9%BE%9C%E5%B1%B1%E5%8D%80%E5%BE%A9%E8%88%88%E4%B8%80%E8%B7%AF88%E8%99%9F%E4%BF%AE%E6%94%B9%E8%A1%A3%E6%9C%8D+%E6%B6%BC%E6%A4%85%E7%A7%9F%E5%94%AE3%E6%A8%93&ftid=0x3442a73b3c10184f:0x111e2cee1464e80b&hl=zh-Hant-TW&gl=tw&entry=gps&lucs=47062720&g_ep=CAISBjYuNTQuMRgAIKzfASoINDcwNjI3MjBCAlRX&g_st=ic",
  "category": "洗改衣服",
  "directory1": "1.生活消費",
  "directory2": "1.2衣著配件",
  "directory3": "衣服修改"
 },
 {
  "no": 40,
  "title": "一條龍改衣褲",
  "address": "桃園市龜山區復興街164-1號",
  "telphone": "03-327-1321",
  "hours": "08:30 - 13:00, 14:00-20:30",
  "figure": "fig\/XLK-411-Shopping\/AiCity-913-一條龍.png",
  "link": "#",
  "category": "洗改衣服",
  "directory1": "1.生活消費",
  "directory2": "1.2衣著配件",
  "directory3": "衣服修改"
 },
 {
  "no": 41,
  "title": "文德二路修改衣服換拉鍊",
  "address": "桃園市龜山區文德二路148巷17號1樓",
  "figure": "fig\/XLK-411-Shopping\/AiCity-913-文德二路修改衣服.jpeg",
  "link": "#",
  "category": "洗改衣服",
  "directory1": "1.生活消費",
  "directory2": "1.2衣著配件",
  "directory3": "衣服修改"
 },
 {
  "no": 42,
  "title": "麗華修改衣服",
  "address": "桃園市龜山區文昌二街21巷13號",
  "telphone": "03-396-3127",
  "figure": "fig\/XLK-411-Shopping\/AiCity-913-麗華改衣.jpg",
  "link": "#",
  "category": "洗改衣服",
  "directory1": "1.生活消費",
  "directory2": "1.2衣著配件",
  "directory3": "衣服修改"
 },
 {
  "no": 148,
  "title": "巴巴洗衣中心",
  "address": "新北市林口區文化二路15號",
  "telphone": "03-327-2744, 0915-715-352",
  "hours": "08:30 - 21:30, 週六日 10:00 - 20:00",
  "figure": "fig\/XLK-411-Shopping\/AiCity-913-巴巴.png",
  "link": "https:\/\/tag.todohealth.com\/%E5%B7%B4%E5%B7%B4%E6%B4%97%E8%A1%A3-1",
  "category": "洗改衣服",
  "directory1": "1.生活消費",
  "directory2": "1.2衣著配件",
  "directory3": "洗衣店"
 },
 {
  "no": 38,
  "title": "加州乾洗-林口長庚",
  "address": "桃園市龜山區文化二路34巷55號",
  "telphone": "03-318-0638",
  "hours": "10:00 - 22:00",
  "figure": "fig\/XLK-411-Shopping\/AiCity-913-加州-2.jpg",
  "link": "http:\/\/www.caldry.tw\/service_pricinglist.php",
  "category": "洗改衣服",
  "directory1": "1.生活消費",
  "directory2": "1.2衣著配件",
  "directory3": "洗衣店"
 },
 {
  "no": 39,
  "title": "洗多屋投幣洗衣生活館",
  "address": "桃園市龜山區文安街 1 5號",
  "telphone": "0921-196-430",
  "hours": "24 H",
  "figure": "fig\/XLK-411-Shopping\/AiCity-913-洗多屋-2.png",
  "link": "https:\/\/www.mywashouse.com\/",
  "category": "洗改衣服",
  "directory1": "1.生活消費",
  "directory2": "1.2衣著配件",
  "directory3": "洗衣店"
 },
 {
  "no": 149,
  "title": "都會洗衣",
  "address": "桃園市龜山區文化三路375號",
  "telphone": "03-318-5018",
  "hours": "09:00 - 22:00 週日公休",
  "figure": "fig\/XLK-411-Shopping\/AiCity-913-都會.jpeg",
  "link": "https:\/\/linkou.ug97.tw\/company.php",
  "category": "洗改衣服",
  "directory1": "1.生活消費",
  "directory2": "1.2衣著配件",
  "directory3": "洗衣店"
 },
 {
  "no": 43,
  "title": "幸福修鞋站（魏師傅）",
  "address": "桃園市龜山區文德二路17號",
  "telphone": "0956-606-178, 0982-701-178",
  "hours": "07:00 - 12:00",
  "figure": "fig\/XLK-411-Shopping\/AiCity-913-幸福修鞋.jpg",
  "link": "https:\/\/www.facebook.com\/%E9%AD%8F%E5%B8%AB%E7%88%B6%E5%B9%B8%E7%A6%8F%E4%BF%AE%E9%9E%8B%E7%AB%99-105488231059307\/",
  "category": "洗改衣服",
  "directory1": "1.生活消費",
  "directory2": "1.2衣著配件",
  "directory3": "修鞋補鞋"
 },
 {
  "no": 150,
  "title": "宏閔淨水",
  "address": "桃園市龜山區文青路155號2樓",
  "telphone": "0985-274-355",
  "hours": "週一~週五 10:30 - 21:00, 週六日 12:00 - 20:00",
  "figure": "fig\/XLK-411-Shopping\/AiCity-913-宏閔.png",
  "link": "https:\/\/appliance-store-2852.business.site\/?utm_source=gmb&utm_medium=referral",
  "category": "傢俱裝飾",
  "directory1": "1.生活消費",
  "directory2": "1.3住屋居家",
  "directory3": "家具用品"
 },
 {
  "no": 152,
  "title": "夏至島升降曬衣架",
  "telphone": "02-2301-1710",
  "figure": "fig\/XLK-411-Shopping\/AiCity-913-夏至島.jpeg",
  "link": "http:\/\/www.summercome.com.tw\/",
  "category": "傢俱裝飾",
  "directory1": "1.生活消費",
  "directory2": "1.3住屋居家",
  "directory3": "家具用品"
 },
 {
  "no": 151,
  "title": "曬立捷升降曬衣架",
  "telphone": "0908-185-719",
  "figure": "fig\/XLK-411-Shopping\/AiCity-913-曬立捷.jpeg",
  "link": "https:\/\/www.facebook.com\/shaiLijie\/",
  "category": "傢俱裝飾",
  "directory1": "1.生活消費",
  "directory2": "1.3住屋居家",
  "directory3": "家具用品"
 },
 {
  "no": 149,
  "title": "升降曬衣桿",
  "telphone": "0926-609-299",
  "figure": "fig\/XLK-411-Shopping\/AiCity-913-曬衣竿.jpeg",
  "link": "https:\/\/m.facebook.com\/%E5%8D%87%E9%99%8D%E6%99%92%E8%A1%A3%E6%A1%BF-355290065217739\/?paipv=0&eav=AfaE9eB8n_SXS8tZ5QcnEIcz9sUf70Ei6qcWUJuwEISIksH9I2wphCSXXAPjDQglCxM&_rdr",
  "category": "傢俱裝飾",
  "directory1": "1.生活消費",
  "directory2": "1.3住屋居家",
  "directory3": "家具用品"
 },
 {
  "no": 29,
  "title": "IKEA宜家家居全新桃園店",
  "address": "桃園市中壢區青埔里高鐵站前東路一段1號",
  "telphone": "02-412-8869 ext 3",
  "hours": "10:00 - 22:00",
  "figure": "fig\/XLK-411-Shopping\/AiCity-913-ikea-2.jpg",
  "link": "https:\/\/www.ikea.com.tw\/zh",
  "category": "傢俱裝飾",
  "directory1": "1.生活消費",
  "directory2": "1.3住屋居家",
  "directory3": "家具用品"
 },
 {
  "no": 30,
  "title": "IKEA宜家家居新莊店",
  "address": "新北市新莊區中正路1號3樓",
  "telphone": "02-2276-5388",
  "hours": "10:00 - 22:00",
  "figure": "fig\/XLK-411-Shopping\/AiCity-913-ikea-2.jpg",
  "link": "https:\/\/www.ikea.com.tw\/zh",
  "category": "傢俱裝飾",
  "directory1": "1.生活消費",
  "directory2": "1.3住屋居家",
  "directory3": "家具用品"
 },
 {
  "no": 26,
  "title": "宜得利家居 林口店",
  "address": "新北市林口區文化三路二段16號家樂福旁",
  "telphone": "02-8601-8193",
  "hours": "10:00 - 22:00",
  "figure": "fig\/XLK-411-Shopping\/AiCity-913-宜得利-2.png",
  "link": "https:\/\/www.nitori.com.tw\/",
  "category": "傢俱裝飾",
  "directory1": "1.生活消費",
  "directory2": "1.3住屋居家",
  "directory3": "家具用品"
 },
 {
  "no": 28,
  "title": "特力屋 林口中山店（社區店）",
  "address": "新北市林口區中山路248號B1",
  "telphone": "02-8601-9228",
  "hours": "10:30 - 22:00",
  "figure": "fig\/XLK-411-Shopping\/AiCity-913-特力屋-2.png",
  "link": "https:\/\/www.trplus.com.tw\/",
  "category": "傢俱裝飾",
  "directory1": "1.生活消費",
  "directory2": "1.3住屋居家",
  "directory3": "家具用品"
 },
 {
  "no": 27,
  "title": "特力屋 新莊店",
  "address": "新北市新莊區中正路620號",
  "telphone": "02-2906-1212",
  "hours": "10:30 - 22:00",
  "figure": "fig\/XLK-411-Shopping\/AiCity-913-特力屋-2.png",
  "link": "https:\/\/www.trplus.com.tw\/",
  "category": "傢俱裝飾",
  "directory1": "1.生活消費",
  "directory2": "1.3住屋居家",
  "directory3": "家具用品"
 },
 {
  "no": 89,
  "title": "Day & Day 日日商業",
  "address": "桃園縣蘆竹鄉中正路一號B1樓 特力居家購物中心 桃園南崁",
  "telphone": "03-331-8691",
  "hours": "11:00 - 22:00",
  "figure": "fig\/XLK-411-Shopping\/AiCity-913-DayDay.png",
  "link": "https:\/\/www.daynday.com.tw\/dayday",
  "category": "傢俱裝飾",
  "directory1": "1.生活消費",
  "directory2": "1.3住屋居家",
  "directory3": "家具裝潢"
 },
 {
  "no": 86,
  "title": "Order 歐德",
  "address": "桃園市龜山區復興一路258號",
  "telphone": "03-318-5398",
  "hours": "10:00 - 22:00",
  "figure": "fig\/XLK-411-Shopping\/AiCity-913-歐德.jpg",
  "link": "https:\/\/www.order.com.tw\/goods.php",
  "category": "傢俱裝飾",
  "directory1": "1.生活消費",
  "directory2": "1.3住屋居家",
  "directory3": "家具裝潢"
 },
 {
  "no": 95,
  "title": "日月光國際",
  "address": "新北市汐止區康寧街751巷13號",
  "telphone": "0800-000-990",
  "hours": "12:00 - 21:00",
  "figure": "fig\/XLK-411-Shopping\/AiCity-913-日月光.jpg",
  "link": "https:\/\/www.asehome.com\/",
  "category": "傢俱裝飾",
  "directory1": "1.生活消費",
  "directory2": "1.3住屋居家",
  "directory3": "家具裝潢"
 },
 {
  "no": 90,
  "title": "日隆燈飾",
  "address": "新北市新莊區新北大道7段180號",
  "telphone": "02-2903-4178, 2903-4101",
  "hours": "09:00 - 22:00, or 14:00 - 22:00",
  "figure": "fig\/XLK-411-Shopping\/AiCity-913-日隆燈飾.jpeg",
  "link": "http:\/\/www.zlong.tw\/",
  "category": "傢俱裝飾",
  "directory1": "1.生活消費",
  "directory2": "1.3住屋居家",
  "directory3": "家具裝潢"
 },
 {
  "no": 96,
  "title": "卡利亞傢俱 \/ 采舍",
  "address": "新北市汐止區康寧街751巷13號 B1008",
  "telphone": "02-2691-5188",
  "hours": "12:00 - 21:00",
  "figure": "fig\/XLK-411-Shopping\/AiCity-913-采舍.png",
  "link": "http:\/\/www.calia.com.tw\/",
  "category": "傢俱裝飾",
  "directory1": "1.生活消費",
  "directory2": "1.3住屋居家",
  "directory3": "家具裝潢"
 },
 {
  "no": 91,
  "title": "禾豐傢俱",
  "address": "台北市中山區堤頂大道二段288號1樓",
  "telphone": "02 8502 5303, 02-8502-5303, 02-8502-5305",
  "hours": "10;00 - 19:00",
  "figure": "fig\/XLK-411-Shopping\/AiCity-913-禾豐.png",
  "link": "https:\/\/www.hefengcasa.com\/",
  "category": "傢俱裝飾",
  "directory1": "1.生活消費",
  "directory2": "1.3住屋居家",
  "directory3": "家具裝潢"
 },
 {
  "no": 92,
  "title": "皇齊國際傢俱",
  "address": "南崁特力家居  桃園縣蘆竹鄉中正路一號4樓",
  "telphone": "03-312-9556",
  "hours": "11:00 - 22:00",
  "figure": "fig\/XLK-411-Shopping\/AiCity-913-皇齊國際.png",
  "link": "https:\/\/www.cellini-teak.com.tw\/",
  "category": "傢俱裝飾",
  "directory1": "1.生活消費",
  "directory2": "1.3住屋居家",
  "directory3": "家具裝潢"
 },
 {
  "no": 87,
  "title": "敦品窗飾",
  "address": "桃園市桃園區永安路232號",
  "telphone": "03-337-5758",
  "hours": "09:00 - 21:00",
  "figure": "fig\/XLK-411-Shopping\/AiCity-913-敦品窗飾.png",
  "link": "http:\/\/www.curtain.tw\/front\/about",
  "category": "傢俱裝飾",
  "directory1": "1.生活消費",
  "directory2": "1.3住屋居家",
  "directory3": "家具裝潢"
 },
 {
  "no": 94,
  "title": "詩肯居家",
  "address": "南崁特力家居  桃園縣蘆竹鄉中正路一號4樓",
  "telphone": "0963-870-810",
  "hours": "11:00 - 22:00",
  "figure": "fig\/XLK-411-Shopping\/AiCity-913-詩肯居家.jpg",
  "link": "https:\/\/www.scanliving.com.tw\/",
  "category": "傢俱裝飾",
  "directory1": "1.生活消費",
  "directory2": "1.3住屋居家",
  "directory3": "家具裝潢"
 },
 {
  "no": 93,
  "title": "綠的國際 \/ 城市居家",
  "address": "南崁特力家居  桃園縣蘆竹鄉中正路一號4樓",
  "telphone": "03-352-0377",
  "hours": "11:00 - 22:00",
  "figure": "fig\/XLK-411-Shopping\/AiCity-913-綠的.jpeg",
  "link": "https:\/\/green-furniture.com.tw\/index.php",
  "category": "傢俱裝飾",
  "directory1": "1.生活消費",
  "directory2": "1.3住屋居家",
  "directory3": "家具裝潢"
 },
 {
  "no": 88,
  "title": "鴻佳地毯",
  "address": "新北市林口區南勢里76-8號",
  "telphone": "02-2600-8789",
  "figure": "fig\/XLK-411-Shopping\/AiCity-913-鴻佳地毯.png",
  "link": "http:\/\/carpet.etrading.com.tw\/company-profile.htm",
  "category": "傢俱裝飾",
  "directory1": "1.生活消費",
  "directory2": "1.3住屋居家",
  "directory3": "家具裝潢"
 },
 {
  "no": 35,
  "title": "林口花市",
  "address": "新北市林口區文化一路二段100巷",
  "hours": "09:00 - 17:30",
  "figure": "fig\/XLK-411-Shopping\/AiCity-913-林口花市.jpeg",
  "link": "#",
  "category": "花卉市場",
  "directory1": "1.生活消費",
  "directory2": "1.3住屋居家",
  "directory3": "園藝花市"
 },
 {
  "no": 38,
  "title": "花敢森活",
  "address": "桃園市龜山區文昌一街47巷24號1樓",
  "telphone": "03-328-8897",
  "hours": "12:00 - 21:00",
  "figure": "fig\/XLK-411-Shopping\/AiCity-913-花敢森活.jpeg",
  "link": "https:\/\/www.facebook.com\/flower.brave.life\/",
  "category": "花卉市場",
  "directory1": "1.生活消費",
  "directory2": "1.3住屋居家",
  "directory3": "園藝花市"
 },
 {
  "no": 36,
  "title": "桃園假日花市",
  "address": "桃園市桃園區壽山路100號",
  "hours": "週六&週日：07:30 - 18:00",
  "figure": "fig\/XLK-411-Shopping\/AiCity-913-桃園假日花市.jpg",
  "link": "#",
  "category": "花卉市場",
  "directory1": "1.生活消費",
  "directory2": "1.3住屋居家",
  "directory3": "園藝花市"
 },
 {
  "no": 37,
  "title": "新莊花卉的休閒農園",
  "address": "新北市樹林區俊英街63巷1號",
  "hours": "週一～週六：08:45 - 17:30",
  "figure": "fig\/XLK-411-Shopping\/AiCity-913-新莊花市.jpg",
  "link": "#",
  "category": "花卉市場",
  "directory1": "1.生活消費",
  "directory2": "1.3住屋居家",
  "directory3": "園藝花市"
 },
 {
  "no": 65,
  "title": "39元五金百貨",
  "address": "桃園龜山區文化二路64號",
  "figure": "fig\/XLK-411-Shopping\/AiCity-918-39百貨.jpg",
  "link": "#",
  "category": "日常生活",
  "directory1": "1.生活消費",
  "directory2": "1.4百貨購物",
  "directory3": "五金店"
 },
 {
  "no": 59,
  "title": "茂城五金",
  "address": "桃園市龜山區文化一路30號",
  "telphone": "03-327-7551",
  "hours": "07:00 - 19:00",
  "figure": "fig\/XLK-411-Shopping\/AiCity-913-茂城-2.jpeg",
  "link": "https:\/\/www.facebook.com\/Lee8888888888\/",
  "category": "日常生活",
  "directory1": "1.生活消費",
  "directory2": "1.4百貨購物",
  "directory3": "五金店"
 },
 {
  "no": 60,
  "title": "晉茂生活科技五金超商",
  "address": "台灣桃園市龜山區文化二路191號",
  "telphone": "03-396-1328",
  "figure": "fig\/XLK-411-Shopping\/AiCity-913-晉茂-2.png",
  "link": "http:\/\/www.diylife.com.tw\/front\/bin\/home.phtml",
  "category": "日常生活",
  "directory1": "1.生活消費",
  "directory2": "1.4百貨購物",
  "directory3": "五金店"
 },
 {
  "no": 57,
  "title": "金玉堂文具批發廣場 - 長庚店",
  "address": "桃園市龜山區文化二路17號",
  "telphone": "03-328-8259",
  "hours": "09:00 - 22:00",
  "figure": "fig\/XLK-411-Shopping\/AiCity-913-金玉堂-2.jpeg",
  "link": "http:\/\/www.jytnet.com.tw\/mobile\/index.aspx",
  "category": "日常生活",
  "directory1": "1.生活消費",
  "directory2": "1.4百貨購物",
  "directory3": "文具店"
 },
 {
  "no": 66,
  "title": "誠品生活時光-林口文化店",
  "address": "桃園市龜山區文化二路20號",
  "telphone": "03-397-1235",
  "hours": "10:00 - 21:00",
  "figure": "fig\/XLK-411-Shopping\/AiCity-913-誠品.jpeg",
  "link": "https:\/\/meet.eslite.com\/tw\/tc\/news\/202207290001",
  "category": "日常生活",
  "directory1": "1.生活消費",
  "directory2": "1.4百貨購物",
  "directory3": "文具店"
 },
 {
  "no": 63,
  "title": "久久鎖印行",
  "address": "桃園市龜山區文山街12號",
  "telphone": "03-327-2519, 0920-876-232",
  "figure": "fig\/XLK-411-Shopping\/AiCity-913-久久鎖印行.jpg",
  "link": "#",
  "category": "日常生活",
  "directory1": "1.生活消費",
  "directory2": "1.4百貨購物",
  "directory3": "刻印開鎖"
 },
 {
  "no": 64,
  "title": "永大鎖匙刻印行",
  "address": "桃園市龜山區文化二路97號",
  "telphone": "03-397-9651",
  "hours": "09:00 - 20:30",
  "figure": "fig\/XLK-411-Shopping\/AiCity-913-永大.jpg",
  "link": "#",
  "category": "日常生活",
  "directory1": "1.生活消費",
  "directory2": "1.4百貨購物",
  "directory3": "刻印開鎖"
 },
 {
  "no": 62,
  "title": "華夏鎖店",
  "address": "桃園市龜山區文化二路34巷57號",
  "telphone": "03-318-2208",
  "hours": "09:30 - 21:30",
  "figure": "fig\/XLK-411-Shopping\/AiCity-913-華夏鎖店.jpeg",
  "link": "https:\/\/locksmith-1418.business.site\/",
  "category": "日常生活",
  "directory1": "1.生活消費",
  "directory2": "1.4百貨購物",
  "directory3": "刻印開鎖"
 },
 {
  "no": 31,
  "title": "7-Eleven 統一超商 富寓門市",
  "address": "桃園市龜山區文德路80號82號",
  "telphone": "03-327-5230",
  "hours": "24H",
  "figure": "fig\/XLK-411-Shopping\/AiCity-913-711-2.png",
  "link": "https:\/\/www.7-11.com.tw\/",
  "category": "便利商店",
  "directory1": "1.生活消費",
  "directory2": "1.4百貨購物",
  "directory3": "便利商店"
 },
 {
  "no": 32,
  "title": "7-Eleven 統一超商 樂善門市",
  "address": "桃園市龜山區文明路131號",
  "telphone": "03-318-2345",
  "hours": "24H",
  "figure": "fig\/XLK-411-Shopping\/AiCity-913-711-2.png",
  "link": "https:\/\/www.7-11.com.tw\/",
  "category": "便利商店",
  "directory1": "1.生活消費",
  "directory2": "1.4百貨購物",
  "directory3": "便利商店"
 },
 {
  "no": 34,
  "title": "Family Mart 全家便利商店 龜山文德店",
  "address": "桃園市龜山區文德路76號",
  "telphone": "03-397-2063",
  "hours": "24H",
  "figure": "fig\/XLK-411-Shopping\/AiCity-913-FamilyMart-2.jpg",
  "link": "https:\/\/www.family.com.tw\/Marketing\/index.aspx",
  "category": "便利商店",
  "directory1": "1.生活消費",
  "directory2": "1.4百貨購物",
  "directory3": "便利商店"
 },
 {
  "no": 33,
  "title": "OK Mart  OK超商 龜山文明店",
  "address": "桃園市龜山區文明路71之2號",
  "telphone": "03-263-1550",
  "hours": "24H",
  "figure": "fig\/XLK-411-Shopping\/AiCity-913-ok-2.png",
  "link": "https:\/\/www.okmart.com.tw\/",
  "category": "便利商店",
  "directory1": "1.生活消費",
  "directory2": "1.4百貨購物",
  "directory3": "便利商店"
 },
 {
  "no": 34,
  "title": "蝦皮店到店 林口民族門市",
  "address": "新北市林口區民族路28號",
  "telphone": "02-6636-6559",
  "hours": "10:30 - 22:00",
  "figure": "fig\/XLK-411-Shopping\/AiCity-913-蝦皮店到店.png",
  "link": "https:\/\/shopee.tw\/m\/spx?smtt=9&deep_and_deferred=33",
  "category": "便利商店",
  "directory1": "1.生活消費",
  "directory2": "1.4百貨購物",
  "directory3": "便利商店"
 },
 {
  "no": 15,
  "title": "Costco 好市多 - 桃園南崁店",
  "address": "桃園市蘆竹區南崁路一段369號",
  "telphone": "02-449-9909",
  "hours": "10:00 - 21:30",
  "figure": "fig\/XLK-411-Shopping\/AiCity-913-Costco.jpg",
  "link": "https:\/\/www.costco.com.tw\/",
  "category": "生鮮超市",
  "directory1": "1.生活消費",
  "directory2": "1.4百貨購物",
  "directory3": "量販店"
 },
 {
  "no": 16,
  "title": "Costco 好市多 - 新莊店",
  "address": "新北市新莊區建國一路138號",
  "telphone": "02-449-9909",
  "hours": "10:00 - 21:30",
  "figure": "fig\/XLK-411-Shopping\/AiCity-913-Costco.jpg",
  "link": "https:\/\/www.costco.com.tw\/",
  "category": "生鮮超市",
  "directory1": "1.生活消費",
  "directory2": "1.4百貨購物",
  "directory3": "量販店"
 },
 {
  "no": 13,
  "title": "田倉超級市場",
  "address": "桃園市龜山區文興路30-42號",
  "telphone": "03-328-8066",
  "hours": "24 小時",
  "figure": "fig\/XLK-411-Shopping\/AiCity-913-田倉-2.jpg",
  "link": "https:\/\/www.facebook.com\/%E7%94%B0%E5%80%89%E7%94%9F%E9%AE%AE%E8%B6%85%E5%B8%82-1467674163531170\/",
  "category": "生鮮超市",
  "directory1": "1.生活消費",
  "directory2": "1.4百貨購物",
  "directory3": "量販店"
 },
 {
  "no": 14,
  "title": "家佳樂食品五金大賣場 - 龜山二店",
  "address": "桃園市龜山區文化二路102-2號",
  "telphone": "03-3979822",
  "hours": "08:30 - 22:30",
  "figure": "fig\/XLK-411-Shopping\/AiCity-913-家佳樂-2.png",
  "link": "#",
  "category": "生鮮超市",
  "directory1": "1.生活消費",
  "directory2": "1.4百貨購物",
  "directory3": "量販店"
 },
 {
  "no": 12,
  "title": "家樂福 Carrefour - 林口店",
  "address": "新北市林口區文化二路一段559號",
  "telphone": "080-026-6988",
  "hours": "09:00 - 23:00",
  "figure": "fig\/XLK-411-Shopping\/AiCity-913-Carrefour-2.png",
  "link": "https:\/\/www.carrefour.com.tw\/",
  "category": "生鮮超市",
  "directory1": "1.生活消費",
  "directory2": "1.4百貨購物",
  "directory3": "量販店"
 },
 {
  "no": 58,
  "title": "蚤樂趣 龜山-樂善店",
  "address": "桃園市龜山區文化一路30號",
  "telphone": "03-327-7551",
  "hours": "07:00 - 19:00",
  "figure": "fig\/XLK-411-Shopping\/AiCity-913-蚤樂趣-2.jpeg",
  "link": "https:\/\/www.sofun.com.tw\/usedcust\/index.php?t=1&npg=&clear=Y",
  "category": "日常生活",
  "directory1": "1.生活消費",
  "directory2": "1.4百貨購物",
  "directory3": "跳蚤市場"
 },
 {
  "no": 54,
  "title": "DAISO大創百貨",
  "address": "桃園市龜山區復興一路8號B1",
  "telphone": "03-318-2792",
  "hours": "11:00 - 21:30",
  "figure": "fig\/XLK-411-Shopping\/AiCity-913-大創-2.png",
  "link": "https:\/\/www.daiso.com.tw\/company\/about",
  "category": "百貨商場",
  "directory1": "1.生活消費",
  "directory2": "1.4百貨購物",
  "directory3": "精品百貨"
 },
 {
  "no": 2,
  "title": "POYA寶雅-龜山文化店",
  "address": "桃園市龜山區文化二路36號",
  "telphone": "03-327-5050",
  "hours": "10:00 - 22:30",
  "figure": "fig\/XLK-411-Shopping\/AiCity-913-Poya-2.png",
  "link": "https:\/\/www.poya.com.tw\/",
  "category": "百貨商場",
  "directory1": "1.生活消費",
  "directory2": "1.4百貨購物",
  "directory3": "精品百貨"
 },
 {
  "no": 1,
  "title": "Global Mall A8 環球購物中心",
  "address": "桃園市龜山區復興一路8號",
  "telphone": "03-328-7599",
  "hours": "11:00 - 22:00",
  "figure": "fig\/XLK-411-Shopping\/AiCity-913-GlobalMall-2A8.jpg",
  "link": "https:\/\/www.twglobalmall.com\/web\/global\/index.html?shopid=TWA4",
  "category": "購物中心",
  "directory1": "1.生活消費",
  "directory2": "1.4百貨購物",
  "directory3": "購物中心"
 },
 {
  "no": 3,
  "title": "Global Mall A9 環球購物中心",
  "address": "新北市林口區文化三路一段2號",
  "telphone": "02-2606-9668",
  "hours": "11:00 - 22:00",
  "figure": "fig\/XLK-411-Shopping\/AiCity-913-GlobalMall-2A9.jpg",
  "link": "https:\/\/www.twglobalmall.com\/web\/global\/index.html?shopid=TWA5",
  "category": "購物中心",
  "directory1": "1.生活消費",
  "directory2": "1.4百貨購物",
  "directory3": "購物中心"
 },
 {
  "no": 71,
  "title": "MetroWalk 大江國際購物中心",
  "address": "桃園市中壢區中園路二段501號",
  "telphone": "03-468-0999",
  "hours": "11:00 - 22:00",
  "figure": "fig\/XLK-411-Shopping\/AiCity-913-dagain.jpg",
  "link": "https:\/\/www.metrowalk.com.tw\/newweb\/home.aspx",
  "category": "購物中心",
  "directory1": "1.生活消費",
  "directory2": "1.4百貨購物",
  "directory3": "購物中心"
 },
 {
  "no": 4,
  "title": "Mitsui Outlet Park 三井 Outlet",
  "address": "新北市林口區文化三路一段356號",
  "telphone": "02-2600-9470",
  "hours": "11:00 - 21:30 平日, 11:00 - 22:00 週末",
  "figure": "fig\/XLK-411-Shopping\/AiCity-913-Outlet-2.png",
  "link": "https:\/\/www.mop.com.tw\/linkou\/tw\/index.html",
  "category": "購物中心",
  "directory1": "1.生活消費",
  "directory2": "1.4百貨購物",
  "directory3": "購物中心"
 },
 {
  "no": 5,
  "title": "Shine Square 昕境廣場",
  "address": "新北市林口區文化三路一段402巷2號",
  "telphone": "02-2606-8252",
  "hours": "11:00 - 21:30 平日, 11:00 - 22:00 週末",
  "figure": "fig\/XLK-411-Shopping\/AiCity-913-ShineSquare-2.png",
  "link": "http:\/\/www.shine-square.com.tw\/",
  "category": "購物中心",
  "directory1": "1.生活消費",
  "directory2": "1.4百貨購物",
  "directory3": "購物中心"
 },
 {
  "no": 70,
  "title": "SOGO 中壢遠東百貨",
  "address": "桃園市中壢區元化路357號",
  "telphone": "03-422-7000",
  "hours": "11:00 - 21:30",
  "figure": "fig\/XLK-411-Shopping\/AiCity-913-Sogo.jpeg",
  "link": "https:\/\/www.sogo.com.tw\/",
  "category": "購物中心",
  "directory1": "1.生活消費",
  "directory2": "1.4百貨購物",
  "directory3": "購物中心"
 },
 {
  "no": 69,
  "title": "TaiMall 台茂購物中心",
  "address": "桃園市蘆竹區南崁路一段112號",
  "telphone": "03-311-1234",
  "hours": "11:00 - 22:00",
  "figure": "fig\/XLK-411-Shopping\/AiCity-913-taimall.gif",
  "link": "https:\/\/www.taimall.com.tw\/",
  "category": "購物中心",
  "directory1": "1.生活消費",
  "directory2": "1.4百貨購物",
  "directory3": "購物中心"
 },
 {
  "no": 25,
  "title": "全國電子",
  "address": "桃園市龜山區文化二路30之12號",
  "telphone": "03-318-1591",
  "hours": "11:00 -22:00",
  "figure": "fig\/XLK-411-Shopping\/AiCity-913-全國-2.png",
  "link": "http:\/\/www.elifemall.com.tw\/allnewweb\/index.php",
  "category": "電器產品",
  "directory1": "1.生活消費",
  "directory2": "1.5家用電器",
  "directory3": "3C產品"
 },
 {
  "no": 24,
  "title": "燦坤3C 新長庚店",
  "address": "桃園市龜山區文化三路383號",
  "telphone": "03-318-2727",
  "hours": "11:00 - 21:30",
  "figure": "fig\/XLK-411-Shopping\/AiCity-913-燦坤-2.jpg",
  "link": "http:\/\/www.tk3c.com\/index.aspx",
  "category": "電器產品",
  "directory1": "1.生活消費",
  "directory2": "1.5家用電器",
  "directory3": "3C產品"
 },
 {
  "no": 21,
  "title": "LG中和旗艦專售店-好漾生活館",
  "address": "新北市中和區中正路876號 1樓",
  "telphone": "02-2221-6188",
  "hours": "11:00 - 21:00",
  "figure": "fig\/XLK-411-Shopping\/AiCity-913-LG-2.jpg",
  "link": "https:\/\/lg-banner-store.business.site\/",
  "category": "電器產品",
  "directory1": "1.生活消費",
  "directory2": "1.5家用電器",
  "directory3": "專賣店"
 },
 {
  "no": 22,
  "title": "Samsung 三星智慧館 - 中和永和",
  "address": "新北市永和區中和路537-1號",
  "telphone": "02-2927-3258",
  "hours": "11:00 -21:00",
  "figure": "fig\/XLK-411-Shopping\/AiCity-913-Samsung-2.png",
  "link": "https:\/\/www.samsung.com\/tw\/",
  "category": "電器產品",
  "directory1": "1.生活消費",
  "directory2": "1.5家用電器",
  "directory3": "專賣店"
 },
 {
  "no": 23,
  "title": "集雅社",
  "address": "桃園市蘆竹區中正路1號",
  "telphone": "03-263-1288",
  "hours": "10:00 - 22:00",
  "figure": "fig\/XLK-411-Shopping\/AiCity-913-集雅社-2.jpg",
  "link": "https:\/\/www.gseven.com.tw\/",
  "category": "電器產品",
  "directory1": "1.生活消費",
  "directory2": "1.5家用電器",
  "directory3": "專賣店"
 },
 {
  "no": 145,
  "title": "埜雲旅行社",
  "address": "新北市林口區麗園一街6巷2號15樓之2",
  "telphone": "02-77098688",
  "figure": "fig\/XLK-411-Shopping\/AiCity-913-埜雲旅行社.jpeg",
  "link": "https:\/\/yytour.com.tw\/",
  "category": "日常生活",
  "directory1": "2.休閒文化",
  "directory2": "2.2休閒運動",
  "directory3": "旅行社"
 },
 {
  "no": 144,
  "title": "桃園市太極健身協會",
  "address": "桃園市龜山區原住民集會所",
  "telphone": "0968-520-355",
  "hours": "05:30 - 07:00",
  "figure": "fig\/XLK-411-Shopping\/AiCity-913-太極協會.jpg",
  "link": "http:\/\/taotaichi.weebly.com\/",
  "category": "健身協會",
  "directory1": "2.休閒文化",
  "directory2": "2.2休閒運動",
  "directory3": "健身協會"
 },
 {
  "no": 55,
  "title": "臺灣彩劵",
  "address": "桃園市龜山區文山街25號",
  "figure": "fig\/XLK-411-Shopping\/AiCity-913-台灣彩劵.png",
  "link": "#",
  "category": "日常生活",
  "directory1": "2.休閒文化",
  "directory2": "2.2休閒運動",
  "directory3": "彩劵行"
 },
 {
  "no": 68,
  "title": "威達運動用品專賣店",
  "address": "桃園市龜山區文化三路446-1號",
  "telphone": "03-318-1476",
  "hours": "10:00 - 21:30",
  "figure": "fig\/XLK-411-Shopping\/AiCity-913-威達.jpeg",
  "link": "https:\/\/www.facebook.com\/WIDE.SPORT\/",
  "category": "日常生活",
  "directory1": "2.休閒文化",
  "directory2": "2.2休閒運動",
  "directory3": "運動用品"
 },
 {
  "no": 61,
  "title": "特麗自助洗車",
  "address": "桃園市龜山區文化一路44號",
  "telphone": "080-088-2717",
  "hours": "24H",
  "figure": "fig\/XLK-411-Shopping\/AiCity-913-特麗-2.jpg",
  "link": "#",
  "category": "日常生活",
  "directory1": "3.工商服務",
  "directory2": "3.1行車運輸",
  "directory3": "汽車美容"
 },
 {
  "no": 79,
  "title": "BMW 益鵬汽車",
  "address": "新北市林口區文化北路一段269號",
  "telphone": "02-2600-2580",
  "hours": "09:00 - 19:00 週日公休",
  "figure": "fig\/XLK-411-Shopping\/AiCity-913-益鵬汽車.jpg",
  "link": "https:\/\/www.facebook.com\/Bmw%E7%9B%8A%E9%B5%AC%E6%B1%BD%E8%BB%8A-%E5%8E%9F%E5%BB%A0%E6%8A%80%E5%B8%AB-100926551551277\/",
  "category": "汽車機車",
  "directory1": "3.工商服務",
  "directory2": "3.1行車運輸",
  "directory3": "汽機車維修"
 },
 {
  "no": 79,
  "title": "G12汽車保修中心",
  "address": "新北市林口區文化北路二段234-1號",
  "telphone": "02-2606-9494",
  "hours": "09:30 - 19:00 週日公休",
  "figure": "fig\/XLK-411-Shopping\/AiCity-913-G12.jpeg",
  "link": "https:\/\/www.facebook.com\/G12CAR\/",
  "category": "汽車機車",
  "directory1": "3.工商服務",
  "directory2": "3.1行車運輸",
  "directory3": "汽機車維修"
 },
 {
  "no": 78,
  "title": "Toyota 豐田汽車",
  "address": "桃園市龜山區文化三路358號",
  "telphone": "0978-793-288",
  "hours": "08:30 - 17:30",
  "figure": "fig\/XLK-411-Shopping\/AiCity-913-toyota.png",
  "link": "https:\/\/www.toyota.com.tw\/index.aspx",
  "category": "汽車機車",
  "directory1": "3.工商服務",
  "directory2": "3.1行車運輸",
  "directory3": "汽機車維修"
 },
 {
  "no": 76,
  "title": "立欣汽車",
  "address": "桃園市龜山區復興三路68號",
  "telphone": "03-397-1710",
  "hours": "08:00–18:00, 週日公休",
  "figure": "fig\/XLK-411-Shopping\/AiCity-913-立欣汽車檢驗有限公司.jpg",
  "link": "https:\/\/www.facebook.com\/69oil",
  "category": "汽車機車",
  "directory1": "3.工商服務",
  "directory2": "3.1行車運輸",
  "directory3": "汽機車維修"
 },
 {
  "no": 82,
  "title": "車得適",
  "address": "新北市林口區文化二路10-3號",
  "telphone": "03-318-4297",
  "hours": "09:00 - 20:00 週日公休",
  "figure": "fig\/XLK-411-Shopping\/AiCity-913-車得適.jpeg",
  "link": "http:\/\/www.tttrust.com.tw\/",
  "category": "汽車機車",
  "directory1": "3.工商服務",
  "directory2": "3.1行車運輸",
  "directory3": "汽機車維修"
 },
 {
  "no": 81,
  "title": "建立汽車",
  "address": "桃園市龜山區文明路101號",
  "telphone": "03-328-6993",
  "hours": "09:00 - 19:00 週日公休",
  "figure": "fig\/XLK-411-Shopping\/AiCity-913-建立汽車.jpg",
  "link": "https:\/\/www.facebook.com\/%E5%BB%BA%E7%AB%8B%E6%B1%BD%E8%BB%8A%E4%BF%9D%E4%BF%AE%E5%BB%A0-100140188920456\/",
  "category": "汽車機車",
  "directory1": "3.工商服務",
  "directory2": "3.1行車運輸",
  "directory3": "汽機車維修"
 },
 {
  "no": 77,
  "title": "原總汽車有限公司",
  "address": "桃園市龜山區復興三路32號",
  "telphone": "03-396-0666",
  "hours": "週1～5: 08:00 - 18:00, 週6: 08:00 - 12:00",
  "figure": "fig\/XLK-411-Shopping\/AiCity-913-原總汽車有限公司.jpg",
  "link": "https:\/\/www.facebook.com\/69oil",
  "category": "汽車機車",
  "directory1": "3.工商服務",
  "directory2": "3.1行車運輸",
  "directory3": "汽機車維修"
 },
 {
  "no": 147,
  "title": "偉豐汽車維修",
  "address": "桃園市龜山區文德路74號",
  "telphone": "03-327-5695 \/ 0933-781-286",
  "figure": "fig\/XLK-411-Shopping\/AiCity-913-偉豐.jpeg",
  "link": "#",
  "category": "汽車機車",
  "directory1": "3.工商服務",
  "directory2": "3.1行車運輸",
  "directory3": "汽機車維修"
 },
 {
  "no": 74,
  "title": "連慶機車行",
  "address": "桃園市龜山區樂善村文山街36號",
  "telphone": "03-328-5425",
  "hours": "08:00–21:30, 週日公休",
  "figure": "fig\/XLK-411-Shopping\/AiCity-913-連慶機車行.jpg",
  "link": "https:\/\/tw.ypgo.net\/5424933955",
  "category": "汽車機車",
  "directory1": "3.工商服務",
  "directory2": "3.1行車運輸",
  "directory3": "汽機車維修"
 },
 {
  "no": 75,
  "title": "揚益機車行",
  "address": "桃園市龜山區樂善里文德路26號1樓",
  "figure": "fig\/XLK-411-Shopping\/AiCity-913-揚益機車行.jpg",
  "category": "汽車機車",
  "directory1": "3.工商服務",
  "directory2": "3.1行車運輸",
  "directory3": "汽機車維修"
 },
 {
  "no": 80,
  "title": "順輾汽車",
  "address": "桃園市龜山區復興一路365號",
  "telphone": "0913-863-873",
  "hours": "外故障24小時服務",
  "figure": "fig\/XLK-411-Shopping\/AiCity-913-順輾汽車.jpg",
  "link": "https:\/\/www.facebook.com\/%E9%A0%86%E8%BC%BE%E6%B1%BD%E8%BB%8A%E5%B0%88%E6%A5%AD%E7%B6%AD%E4%BF%AE%E5%BB%A0-604048946326232\/",
  "category": "汽車機車",
  "directory1": "3.工商服務",
  "directory2": "3.1行車運輸",
  "directory3": "汽機車維修"
 },
 {
  "no": 78,
  "title": "嘉實多-嘉輝店",
  "address": "新北市林口區文化二路一段68巷43號",
  "telphone": "02-2608-6119",
  "figure": "fig\/XLK-411-Shopping\/AiCity-913-嘉實多.jpg",
  "link": "#",
  "category": "汽車機車",
  "directory1": "3.工商服務",
  "directory2": "3.1行車運輸",
  "directory3": "汽機車維修"
 },
 {
  "no": 100,
  "title": "Tasker 宅任務",
  "address": "全省網路服務",
  "telphone": "02-8512-7525",
  "hours": "週一至週五 8:30 ~ 11:50, 13:20 ~ 18:00",
  "figure": "fig\/XLK-411-Shopping\/AiCity-913-Tasker.jpg",
  "link": "https:\/\/www.tasker.com.tw\/life",
  "category": "清潔維修",
  "directory1": "3.工商服務",
  "directory2": "3.2環境保護",
  "directory3": "清潔服務"
 },
 {
  "no": 97,
  "title": "呼叫黃背心",
  "address": "臺北市內湖區堤頂大道1段327號4樓",
  "telphone": "0800-088-885",
  "hours": "週一至週五09:00 – 18:00",
  "figure": "fig\/XLK-411-Shopping\/AiCity-913-呼叫黃背心.png",
  "link": "https:\/\/www.yellow885.com.tw\/",
  "category": "清潔維修",
  "directory1": "3.工商服務",
  "directory2": "3.2環境保護",
  "directory3": "清潔服務"
 },
 {
  "no": 98,
  "title": "英敏智能清潔企業社",
  "address": "花蓮縣吉安鄉中山路一段66號6樓之4",
  "telphone": "0982-485-907",
  "hours": "週一到週五早上8:00~晚上22:00\n週六週日下午14:00~晚上22:00",
  "figure": "fig\/XLK-411-Shopping\/AiCity-913-智敏清潔.jpg",
  "link": "https:\/\/site-3588048-2802-4987.mystrikingly.com\/?fbclid=IwAR3MI6-pW860yQRFO2eDwNd23m3xTZoXl3zF-Q_65WL7Lera2CM0kjza9Ao",
  "category": "清潔維修",
  "directory1": "3.工商服務",
  "directory2": "3.2環境保護",
  "directory3": "清潔服務"
 },
 {
  "no": 99,
  "title": "潔客幫",
  "address": "台北市中山區長安東路二段52號7樓",
  "telphone": "02-7744-8081",
  "hours": "平日 09:00 - 18:00\n\n例假日 9:00 - 12:30 ， 13:30 - 18:00",
  "figure": "fig\/XLK-411-Shopping\/AiCity-913-潔客幫.png",
  "link": "https:\/\/www.jackercleaning.com\/n\/",
  "category": "清潔維修",
  "directory1": "3.工商服務",
  "directory2": "3.2環境保護",
  "directory3": "清潔服務"
 },
 {
  "no": 303,
  "title": "中國信託商業銀行林口分行",
  "address": "桃園縣龜山鄉復興一路233號",
  "telphone": "03-396-2777",
  "hours": "09:00 - 15:30",
  "figure": "fig\/A7XLK-213-中國信託.jpg",
  "link": "https:\/\/www.ctbcbank.com\/twrbo\/zh_tw\/dep_index.html",
  "category": "金融銀行",
  "directory1": "3.工商服務",
  "directory2": "3.4金融工商",
  "directory3": "銀行證劵"
 },
 {
  "no": 304,
  "title": "元大商業銀行林口分行",
  "address": "桃園縣龜山鄉文化三路118號",
  "telphone": "03-328-8999",
  "hours": "09:00 - 15:30",
  "figure": "fig\/A7XLK-213-元大.jpeg",
  "link": "https:\/\/www.yuantabank.com.tw\/bank\/",
  "category": "金融銀行",
  "directory1": "3.工商服務",
  "directory2": "3.4金融工商",
  "directory3": "銀行證劵"
 },
 {
  "no": 305,
  "title": "元大證劵長庚分公司",
  "address": "桃園市龜山區文化二路38之6號二樓",
  "telphone": "03-397-8787",
  "hours": "08:30 - 16:00",
  "figure": "fig\/A7XLK-213-元大證劵.jpg",
  "link": "https:\/\/www.yuanta.com.tw\/eyuanta\/",
  "category": "金融銀行",
  "directory1": "3.工商服務",
  "directory2": "3.4金融工商",
  "directory3": "銀行證劵"
 },
 {
  "no": 301,
  "title": "台新銀行 新莊副都心分行",
  "address": "新北市新莊區中原路150號",
  "telphone": "02-8521-1388 #100",
  "hours": "09:00 - 15:30",
  "figure": "fig\/A7XLK-213-台新.jpeg",
  "link": "https:\/\/www.taishinbank.com.tw\/TSB\/personal\/",
  "category": "金融銀行",
  "directory1": "3.工商服務",
  "directory2": "3.4金融工商",
  "directory3": "銀行證劵"
 },
 {
  "no": 316,
  "title": "台灣土地銀行林口分行",
  "address": "桃園市龜山區文化二路109號",
  "telphone": "03-318-2128",
  "hours": "09:00 - 15:30",
  "figure": "fig\/A7XLK-213-土地銀行.jpg",
  "link": "https:\/\/www.landbank.com.tw\/",
  "category": "金融銀行",
  "directory1": "3.工商服務",
  "directory2": "3.4金融工商",
  "directory3": "銀行證劵"
 },
 {
  "no": 308,
  "title": "玉山銀行 林口分行",
  "address": "桃園市龜山區復興一路230號",
  "telphone": "03-396-1313",
  "hours": "09:00 - 15:30",
  "figure": "fig\/A7XLK-213-玉山銀行.png",
  "link": "https:\/\/www.esunbank.com.tw\/bank\/personal",
  "category": "金融銀行",
  "directory1": "3.工商服務",
  "directory2": "3.4金融工商",
  "directory3": "銀行證劵"
 },
 {
  "no": 302,
  "title": "兆豐銀行林口分行",
  "address": "桃園市龜山區文化二路11-39號",
  "telphone": "03-327-2191",
  "hours": "09:00 - 15:30",
  "figure": "fig\/A7XLK-213-兆豐銀行.jpg",
  "link": "https:\/\/www.megabank.com.tw\/personal",
  "category": "金融銀行",
  "directory1": "3.工商服務",
  "directory2": "3.4金融工商",
  "directory3": "銀行證劵"
 },
 {
  "no": 313,
  "title": "合作金庫銀行 林口分行",
  "address": "桃園市龜山區文化二路49號",
  "telphone": "03-318-3880",
  "hours": "09:00 - 15:30",
  "figure": "fig\/A7XLK-213-合作金庫.png",
  "link": "https:\/\/www.tcb-bank.com.tw\/Pages\/index.aspx",
  "category": "金融銀行",
  "directory1": "3.工商服務",
  "directory2": "3.4金融工商",
  "directory3": "銀行證劵"
 },
 {
  "no": 317,
  "title": "高雄銀行林口分行",
  "address": "桃園市龜山區文化二路82號",
  "telphone": "03-318-6688",
  "hours": "09:00 - 15:30",
  "figure": "fig\/A7XLK-213-高雄銀行.jpg",
  "link": "https:\/\/www.bok.com.tw\/welcome",
  "category": "金融銀行",
  "directory1": "3.工商服務",
  "directory2": "3.4金融工商",
  "directory3": "銀行證劵"
 },
 {
  "no": 309,
  "title": "國泰世華銀行林口分行",
  "address": "桃園市龜山區文化三路319號",
  "telphone": "03-327-1689",
  "hours": "09:00 - 15:30",
  "figure": "fig\/A7XLK-213-國泰世華.jpg",
  "link": "https:\/\/www.cathaybk.com.tw\/cathaybk\/",
  "category": "金融銀行",
  "directory1": "3.工商服務",
  "directory2": "3.4金融工商",
  "directory3": "銀行證劵"
 },
 {
  "no": 312,
  "title": "第一銀行林口分行",
  "address": "桃園市龜山區文化二路76號",
  "telphone": "03-318-6611",
  "hours": "09:00 - 15:30",
  "figure": "fig\/A7XLK-213-第一銀行.png",
  "link": "https:\/\/www.firstbank.com.tw\/sites\/fbweb\/Home",
  "category": "金融銀行",
  "directory1": "3.工商服務",
  "directory2": "3.4金融工商",
  "directory3": "銀行證劵"
 },
 {
  "no": 307,
  "title": "渣打國際商業銀行公西分行",
  "address": "桃園市龜山區復興一路237號",
  "telphone": "03-397-2288",
  "hours": "09:00 - 15:30",
  "figure": "fig\/A7XLK-213-渣打銀行.jpeg",
  "link": "https:\/\/service.standardchartered.com.tw\/ssl\/campaign\/credit-cards\/signature-card.asp",
  "category": "金融銀行",
  "directory1": "3.工商服務",
  "directory2": "3.4金融工商",
  "directory3": "銀行證劵"
 },
 {
  "no": 314,
  "title": "華南銀行林口分行",
  "address": "桃園市龜山區復興一路300號",
  "telphone": "03-318-3456",
  "hours": "09:00 - 15:30",
  "figure": "fig\/A7XLK-213-華南銀行.png",
  "link": "https:\/\/www.hncb.com.tw\/wps\/portal\/HNCB\/",
  "category": "金融銀行",
  "directory1": "3.工商服務",
  "directory2": "3.4金融工商",
  "directory3": "銀行證劵"
 },
 {
  "no": 310,
  "title": "陽信銀行林口分行",
  "address": "桃園市龜山區文化三路331號1~2樓",
  "telphone": "03-327-3559",
  "hours": "09:00 - 15:30",
  "figure": "fig\/A7XLK-213-陽信銀行.jpg",
  "link": "https:\/\/www.sunnybank.com.tw\/net\/",
  "category": "金融銀行",
  "directory1": "3.工商服務",
  "directory2": "3.4金融工商",
  "directory3": "銀行證劵"
 },
 {
  "no": 315,
  "title": "彰化銀行東林口分行",
  "address": "桃園市龜山區復興一路235號",
  "telphone": "03-397-5555",
  "hours": "09:00 - 15:30",
  "figure": "fig\/A7XLK-213-彰化銀行.jpg",
  "link": "https:\/\/www.bankchb.com\/frontend\/index.html",
  "category": "金融銀行",
  "directory1": "3.工商服務",
  "directory2": "3.4金融工商",
  "directory3": "銀行證劵"
 },
 {
  "no": 311,
  "title": "臺灣銀行林口分行",
  "address": "桃園市龜山區復興一路368號",
  "telphone": "03-327-7299",
  "hours": "09:00 - 15:30",
  "figure": "fig\/A7XLK-213-台灣銀行.jpg",
  "link": "https:\/\/www.bot.com.tw\/Pages\/default.aspx",
  "category": "金融銀行",
  "directory1": "3.工商服務",
  "directory2": "3.4金融工商",
  "directory3": "銀行證劵"
 },
 {
  "no": 306,
  "title": "遠東國際商業銀行林口分行",
  "address": "桃園縣龜山鄉復興一路227號",
  "telphone": "03-397-3888",
  "hours": "09:00 - 15:30",
  "figure": "fig\/A7XLK-213-遠東銀行.jpg",
  "link": "https:\/\/www.feib.com.tw\/",
  "category": "金融銀行",
  "directory1": "3.工商服務",
  "directory2": "3.4金融工商",
  "directory3": "銀行證劵"
 },
 {
  "no": 73,
  "title": "Jinsd",
  "address": "桃園市龜山區復興一路8號(機場捷運A8站)",
  "telphone": "03-327-3913",
  "hours": "週一～週日 11：00～22：00",
  "figure": "fig\/XLK-411-Shopping\/AiCity-913-Jins.png",
  "link": "https:\/\/www.jins.com\/tw\/news\/news-5f7d29bf3e129",
  "category": "眼鏡行",
  "directory1": "3.工商服務",
  "directory2": "3.6聲光影視",
  "directory3": "眼鏡行"
 },
 {
  "no": 72,
  "title": "Owndays",
  "address": "新北市林口區文化三路一段356號",
  "hours": "11:00-21:30 週五 11:00-22:00 \/ 週六、週日 10:30-22:00",
  "figure": "fig\/XLK-411-Shopping\/AiCity-913-Owndays.png",
  "link": "https:\/\/www.owndays.com\/tw\/zh_tw\/shops\/935",
  "category": "眼鏡行",
  "directory1": "3.工商服務",
  "directory2": "3.6聲光影視",
  "directory3": "眼鏡行"
 },
 {
  "no": 142,
  "title": "正先進柯達照相館",
  "address": "桃園市龜山區復興一路138號",
  "telphone": "03-397-0590",
  "hours": "10:00 - 20:30",
  "figure": "fig\/XLK-411-Shopping\/AiCity-913-正先進照相館.jpg",
  "link": "https:\/\/taiwan.worldorgs.com\/%E7%9B%AE%E5%BD%95\/guishan-district\/%E7%A4%BC%E5%93%81%E5%BA%97\/%E6%AD%A3%E5%85%88%E9%80%B2%E6%9F%AF%E9%81%94%E7%85%A7%E7%9B%B8%E9%A4%A8fedex%E6%8A%95%E9%81%9E%E4%BB%A3%E6%94%B6%E7%AB%99",
  "category": "眼鏡行",
  "directory1": "3.工商服務",
  "directory2": "3.6聲光影視",
  "directory3": "照相館"
 },
 {
  "no": 143,
  "title": "柯尼卡數位影像中心",
  "address": "桃園市龜山區文化二路34巷14弄2號",
  "telphone": "03-328-8202",
  "hours": "09:30 - 19:00",
  "figure": "fig\/XLK-411-Shopping\/AiCity-913-柯尼卡照相館.jpg",
  "link": "https:\/\/picture-frame-shop-570.business.site\/",
  "category": "眼鏡行",
  "directory1": "3.工商服務",
  "directory2": "3.6聲光影視",
  "directory3": "照相館"
 },
 {
  "no": 141,
  "title": "蘋果保衛站",
  "address": "桃園市桃園區復興路278號",
  "telphone": "03-339-8018",
  "hours": "11:00 - 21:00",
  "figure": "fig\/XLK-411-Shopping\/AiCity-913-蘋果保衛站.png",
  "link": "https:\/\/www.applecarestation.com.tw\/index.html",
  "category": "手機電腦維修",
  "directory1": "3.工商服務",
  "directory2": "3.7資訊通信",
  "directory3": "手機電腦維修"
 },
 {
  "no": 46,
  "title": "100 元剪髮 - 名藝美髮工作坊",
  "address": "桃園市龜山區文善街37號",
  "figure": "fig\/XLK-411-Shopping\/AiCity-913-名藝美髮.png",
  "link": "#",
  "category": "髮廊美容",
  "directory1": "4.社會服務",
  "directory2": "4.1醫療保健",
  "directory3": "美容美髮"
 },
 {
  "no": 47,
  "title": "100 元剪髮 - 老師傅理髮",
  "address": "桃園市龜山區文德二路135號",
  "hours": "09:00 - 20:00",
  "figure": "fig\/XLK-411-Shopping\/",
  "link": "#",
  "category": "髮廊美容",
  "directory1": "4.社會服務",
  "directory2": "4.1醫療保健",
  "directory3": "美容美髮"
 },
 {
  "no": 52,
  "title": "100元剪髮",
  "address": "桃園市龜山區復興一路125號",
  "hours": "12:00 - 20:30",
  "figure": "fig\/XLK-411-Shopping\/",
  "link": "＃",
  "category": "髮廊美容",
  "directory1": "4.社會服務",
  "directory2": "4.1醫療保健",
  "directory3": "美容美髮"
 },
 {
  "no": 48,
  "title": "MKS洛依髮集",
  "address": "桃園市龜山區文德二路138巷15號",
  "telphone": "03-397-9965",
  "hours": "11:00 - 20:00",
  "figure": "fig\/XLK-411-Shopping\/AiCity-913-MKS-2.jpeg",
  "link": "https:\/\/www.facebook.com\/mkssalon\/",
  "category": "髮廊美容",
  "directory1": "4.社會服務",
  "directory2": "4.1醫療保健",
  "directory3": "美容美髮"
 },
 {
  "no": 51,
  "title": "QB House",
  "address": "桃園市龜山區復興一路8號地下一樓",
  "telphone": "02-2558-9119",
  "hours": "11:00 - 21:30",
  "figure": "fig\/XLK-411-Shopping\/AiCity-913-QB-2.png",
  "link": "http:\/\/www.qbhouse.com\/tw\/search\/detail.php?id=18&new=1",
  "category": "髮廊美容",
  "directory1": "4.社會服務",
  "directory2": "4.1醫療保健",
  "directory3": "美容美髮"
 },
 {
  "no": 85,
  "title": "立可酷",
  "address": "桃園市龜山區文化一路6號",
  "telphone": "0971-671-006",
  "hours": "11:00 - 21:00",
  "figure": "fig\/XLK-411-Shopping\/AiCity-913-立可酷.jpg",
  "link": "http:\/\/www.lookcool.tw\/",
  "category": "髮廊美容",
  "directory1": "4.社會服務",
  "directory2": "4.1醫療保健",
  "directory3": "美容美髮"
 },
 {
  "no": 50,
  "title": "菲主流髮妍",
  "address": "桃園市龜山區文安街30號",
  "telphone": "03-327-4811",
  "figure": "fig\/XLK-411-Shopping\/",
  "link": "＃",
  "category": "髮廊美容",
  "directory1": "4.社會服務",
  "directory2": "4.1醫療保健",
  "directory3": "美容美髮"
 },
 {
  "no": 146,
  "title": "微笑美學SPA",
  "address": "桃園市龜山區長慶三街26號",
  "telphone": "03-327-1431",
  "hours": "10:00 - 18:30",
  "figure": "fig\/XLK-411-Shopping\/AiCity-913-CBeauty.jpeg",
  "link": "https:\/\/sites.google.com\/view\/c-beauty-salon\/%E9%A6%96%E9%A0%81?authuser=0",
  "category": "髮廊美容",
  "directory1": "4.社會服務",
  "directory2": "4.1醫療保健",
  "directory3": "美容美髮"
 },
 {
  "no": 49,
  "title": "蒔代髮妝沙龍",
  "address": "桃園市龜山區文德二路92號",
  "figure": "fig\/XLK-411-Shopping\/",
  "link": "＃",
  "category": "髮廊美容",
  "directory1": "4.社會服務",
  "directory2": "4.1醫療保健",
  "directory3": "美容美髮"
 },
 {
  "no": 56,
  "title": "左外野藥局",
  "address": "桃園市龜山區文光街6號1樓",
  "telphone": "03-327-1503",
  "hours": "10:00 - 21:00 (週五公休）",
  "figure": "fig\/XLK-411-Shopping\/AiCity-913-左外野-2.jpeg",
  "link": "https:\/\/www.facebook.com\/%E5%B7%A6%E5%A4%96%E9%87%8E%E8%97%A5%E5%B1%80-114189630218930\/",
  "category": "日常生活",
  "directory1": "4.社會服務",
  "directory2": "4.1醫療保健",
  "directory3": "健保藥局"
 },
 {
  "no": 66,
  "title": "bibi woo 比比屋",
  "address": "桃園市龜山區文山街23號",
  "telphone": "03-397-4330",
  "hours": "10:00 - 18:00",
  "figure": "fig\/XLK-411-Shopping\/AiCity-913-比比屋.jpg",
  "link": "https:\/\/bibi-woo.business.site\/?utm_source=gmb&utm_medium=referral",
  "category": "日常生活",
  "directory1": "4.社會服務",
  "directory2": "4.1醫療保健",
  "directory3": "寵物店"
 },
 {
  "no": 67,
  "title": "遇見cat寵物生活館",
  "address": "桃園市龜山區樂學一路122號",
  "telphone": "0979-555-685",
  "hours": "10:00 - 19:00 週一公休",
  "figure": "fig\/XLK-411-Shopping\/AiCity-913-Cat.jpeg",
  "link": "https:\/\/www.facebook.com\/meetcat.20220501",
  "category": "日常生活",
  "directory1": "4.社會服務",
  "directory2": "4.1醫療保健",
  "directory3": "寵物店"
 },
 {
  "no": 53,
  "title": "康是美長庚門市",
  "address": "桃園市龜山區復興一路78號號1樓",
  "telphone": "03-211-4974",
  "hours": "08:00 - 23:00",
  "figure": "fig\/XLK-411-Shopping\/AiCity-913-康是美-2.png",
  "link": "https:\/\/shop.cosmed.com.tw\/",
  "category": "百貨商場",
  "directory1": "4.社會服務",
  "directory2": "4.1醫療保健",
  "directory3": "藥品藥材"
 },
 {
  "no": "no",
  "title": "title",
  "address": "address",
  "telphone": "telphone",
  "hours": "hours",
  "figure": "figure",
  "link": "link",
  "category": "category",
  "directory1": "directory1",
  "directory2": "directory2",
  "directory3": "directory3"
 }
]