[
 {
  "title": "有形有色專業畫室",
  "no": "102",
  "address": "桃園市龜山區長慶三街60號一樓",
  "telephone": "0922-867-602",
  "hours": "09:00 - 21:00",
  "figure": "fig\/XLK-223-Talent\/AiCity-2203-Talent-102.jpeg",
  "link": "https:\/\/www.facebook.com\/liahoteacher\/",
  "Description": "<a href=\"fig\/XLK-223-Talent\/AiCity-2203-Talent-102.pdf\">招生廣告<\/a>, &nbsp;&nbsp;\n<a href=\"https:\/\/liff.line.me\/1645278921-kWRPP32q\/?accountId=exi5843e\">LINE<\/a>",
  "Type": "繪畫",
  "category": "兒童才藝"
 },
 {
  "title": "絢音音樂教育 Virtuosi School of Music",
  "no": "110",
  "address": "桃園市龜山區樂善一路9號2樓（遠雄新未來）",
  "telephone": "0913-720-311",
  "hours": "週日 10:00 - 19:00, 週三 12:00 - 21:00, 週六 12:00 - 19:00",
  "figure": "fig\/XLK-223-Talent\/AiCity-2203-Talent-110.png",
  "link": "https:\/\/www.facebook.com\/virtuosimusic\/",
  "Type": "音樂",
  "category": "兒童才藝"
 },
 {
  "title": "悠揚八度音樂中心",
  "no": "101",
  "address": "桃園市龜山區長慶三街30號一樓",
  "telephone": "0937-081-121",
  "hours": "週ㄧ~週五:14:30 - 19:30, 週六10:30 - 18:30 週日公休",
  "figure": "fig\/XLK-223-Talent\/AiCity-2203-Talent-101.jpeg",
  "link": "https:\/\/m.facebook.com\/profile.php?id=100063945619389",
  "Type": "音樂",
  "category": "兒童才藝"
 },
 {
  "title": "生活音樂",
  "no": "105",
  "address": "桃園市龜山區文學路238號",
  "telephone": "03-327-4630",
  "hours": "週ㄧ~週五:14:00 - 21:00, 週六日:10:00 - 17:00",
  "figure": "fig\/XLK-223-Talent\/AiCity-2203-Talent-105.jpeg",
  "link": "https:\/\/www.facebook.com\/profile.php?id=100055376756761",
  "Type": "音樂",
  "category": "兒童才藝"
 },
 {
  "title": "格林威治英語短期補習班",
  "no": "103",
  "address": "桃園市龜山區長慶三街36號一樓",
  "telephone": "03-397-2622",
  "figure": "fig\/XLK-223-Talent\/AiCity-2203-Talent-103.jpeg",
  "Type": "英語",
  "category": "兒童才藝"
 },
 {
  "title": "紐洛琳英語學院",
  "no": "104",
  "address": "桃園市龜山區樂學路339巷1號",
  "telephone": "03-327-1791",
  "hours": "週一～週五: 12:30 - 20:30",
  "figure": "fig\/XLK-223-Talent\/AiCity-2203-Talent-104.jpeg",
  "link": "https:\/\/www.facebook.com\/profile.php?id=100063890837473",
  "Type": "英語",
  "category": "兒童才藝"
 },
 {
  "title": "林口何嘉仁-華亞國際校",
  "no": "106",
  "address": "桃園市龜山區華亞三路39巷29號",
  "telephone": "03-328-1555",
  "hours": "週一～週五: 09:00 - 19:30",
  "figure": "fig\/XLK-223-Talent\/AiCity-2203-Talent-106.jpeg",
  "link": "https:\/\/www.facebook.com\/profile.php?id=100082860056310",
  "Type": "輔導",
  "category": "兒童才藝"
 },
 {
  "title": "奇異鳥國際幼兒園龜山科園校",
  "no": "109",
  "address": "桃園市龜山區華亞三路501號",
  "telephone": "03-397-3789",
  "hours": "週一～週五: 07:00 - 18:30",
  "figure": "fig\/XLK-223-Talent\/AiCity-2203-Talent-109.png",
  "link": "https:\/\/anniesschool.com.tw\/",
  "Type": "輔導",
  "category": "兒童才藝"
 },
 {
  "title": "朵樂兒童課後照顧服務中心",
  "no": "107",
  "address": "桃園市龜山區文學路257號",
  "telephone": "0937-319-625",
  "figure": "fig\/XLK-223-Talent\/AiCity-2203-Talent-107.jpeg",
  "link": "https:\/\/www.facebook.com\/dorisdeerclass",
  "Type": "輔導",
  "category": "兒童才藝"
 },
 {
  "title": "佑林兒童課後照顧服務中心",
  "no": "108",
  "address": "桃園市龜山區文德二路100號",
  "telephone": "03-327-3488",
  "hours": "週ㄧ~週五:12:30 - 21:00 (週二至 20:00), 週六:09:00 - 17:00",
  "figure": "fig\/XLK-223-Talent\/AiCity-2203-Talent-108.png",
  "link": "https:\/\/www.facebook.com\/YulinAfterSchoolChildCare\/",
  "Type": "輔導",
  "category": "兒童才藝"
 },
 {
  "title": "爆發力健身工作室",
  "no": "206",
  "address": "園市龜山區文青二路100號",
  "telephone": "0906-376-002",
  "hours": "24 hr",
  "figure": "fig\/XLK-223-Talent\/AiCity-2203-Talent-206.png",
  "link": "https:\/\/www.facebook.com\/profile.php?id=100088824045930&mibextid=LQQJ4d",
  "Type": "運動",
  "category": "休閒運動"
 },
 {
  "title": "文青瑜珈",
  "no": "204",
  "address": "桃園市龜山區文學路256號2F 文青跆拳道樓上",
  "telephone": "官方(line)搜尋：@a7fitness",
  "hours": "週一: 17:30 - 18:30 開班中, 週三: 18:00 - 19:00 新班級",
  "figure": "fig\/XLK-223-Talent\/AiCity-2203-Talent-204.png",
  "link": "https:\/\/www.facebook.com\/groups\/1951117865015671\/user\/100041006648305\/",
  "Type": "運動",
  "category": "休閒運動"
 },
 {
  "title": "文青跆拳道館",
  "no": "205",
  "address": "桃園市龜山區文學路256號1F",
  "telephone": "0976-838-457",
  "hours": "週ㄧ~週五:18:00 - 21:00, 週六:09:00 - 12:00",
  "figure": "fig\/XLK-223-Talent\/AiCity-2203-Talent-205.jpeg",
  "link": "https:\/\/www.facebook.com\/wenqing157\/",
  "Type": "運動",
  "category": "休閒運動"
 },
 {
  "title": "達特舒運動教室",
  "no": "201",
  "address": "桃園市龜山區長慶三街46號",
  "telephone": "0954-075-058",
  "hours": "09:00 - 22:00",
  "figure": "fig\/XLK-223-Talent\/AiCity-2203-Talent-201.png",
  "link": "https:\/\/www.facebook.com\/Dr.SungSport\/",
  "Type": "運動",
  "category": "休閒運動"
 },
 {
  "title": "A7 Fitness & Space運動課程",
  "no": "202",
  "address": "桃園市龜山區文學路256號",
  "hours": "24hr",
  "figure": "fig\/XLK-223-Talent\/AiCity-2203-Talent-202.png",
  "link": "https:\/\/www.facebook.com\/A7workout",
  "Type": "運動",
  "category": "休閒運動"
 },
 {
  "title": "小倉鼠健身坊",
  "no": "203",
  "address": "333桃園市龜山區文青路213號2F",
  "figure": "fig\/XLK-223-Talent\/AiCity-2203-Talent-203.jpeg",
  "link": "https:\/\/line.me\/R\/ti\/p\/@377ijnzz",
  "Type": "運動",
  "category": "休閒運動"
 }
]